X,Y,OBJECTID,FACILITY_STATUS,NAME,CAD_NAME,AKA,TYPE,UNIT,CDF_UNIT,COUNTY,OWNER,FUNDING,STAFFING,ADDRESS,CITY,ZIP,PHONE_NUM,LAT,LON
-13048435.4627,4045118.7724,1,Active,541,HIG 541,Highland,FSA,BDU,BDU,San Bernardino,CITY,A,V,26974 Baseline,Highland,92346,909-862-3031,34.12142498,-117.2160901
-13042160.0574,4045052.2999,2,Active,542,HIG 542,East Highland,FSA,BDU,BDU,San Bernardino,CITY,A,P,29507 Baseline,Highland,92346,909-862-1760,34.12093064,-117.15971717
-13051488.7033,4044221.9202,3,Active,543,HIG 543,Sterling,FSA,BDU,BDU,San Bernardino,CITY,A,P,7649 Sterling Ave,Highland,92410,909-884-4100,34.11475509,-117.24351783
-13034657.4203,4033369.6017,4,Active,552,Yuc 552,Crafton ,FSA,BDU,BDU,San Bernardino,CITY,A,P,32664 Yucaipa Bl,Yucaipa,92399,909-797-2313,34.0340047,-117.09231984
-13030745.5939,4030902.2334,5,Active,553,Yuc 553,Wildwood,FSA,BDU,BDU,San Bernardino,CITY,A,P,34259 Wildwood Canyon Rd,Yucaipa,92399,909-795-3048,34.01563466,-117.0571793
-13574805.2323,4381997.3469,6,Active,Pebble Beach FS,BEU Pebble Beach FS,#22,FSA,BEU,BEU,Monterey,FIRE DISTRICT,A,P,3101-B Forest Lake Rd,Pebble Beach,93953,831-375-4204,36.5891745,-121.94455019
-13571411.0637,4379869.0787,7,Active,Carmel Hill FFS,BEU Carmel Hill FS,#28,FSAB,BEU,BEU,Monterey,STATE,C,P,4180 17 Mile Drive,Pebble Beach,93953-9562,831-625-6415,36.5738221,-121.91405986
-13570657.5801,4375128.2412,8,Active,Rio Road FS,BEU Rio Road FS,#25,FSA,BEU,BEU,Monterey,FIRE DISTRICT,A,P,3775 Rio Road,Carmel,93923-8604,831-624-4511,36.53961281,-121.9072912
-13573892.8096,4370280.0435,9,Active,Carmel Highlands FS,BEU Carmel Highlands FS,#21,FSA,BEU,BEU,Monterey,FIRE DISTRICT,A,P,73 Fern Cyn Rd,Carmel,93923,831-624-2374,36.50461317,-121.93635376
-13541011.085,4422324.0013,10,Active,Aromas FS,BEU Aromas FS,#70,FSAB,BEU,BEU,Monterey,FIRE DISTRICT,C,P,492 Carpenteria Rd,Aromas,95004-9613,831-726-3130,36.87949563,-121.6409722
-13535576.3301,4839749.5295,11,Active,Upper Ridge FS,BTC Upper Ridge FS,Station 33,FSA,BTC,BTU,Butte,COUNTY,A,P,14164 Skyway,Magalia,95954,530-872-6323,39.81951176,-121.59215097
-13560516.4399,4824904.7077,12,Active,South Chico FS,BTC South Chico FS,Station 44,FSA,BTC,BTU,Butte,COUNTY,A,P,2344 Fair St,Chico,95928,530-891-2787,39.71701141,-121.81619179
-13558742.7211,4814294.9176,13,Active,Durham FS,BTC Durham FS,Station 45,FSA,BTC,BTU,Butte,COUNTY,A,C,2367 Campbell St,Durham,95938,530-891-2788,39.64365956,-121.8002582
-13515157.4598,4777747.8852,14,Active,Bangor FS,BTC Bangor FS,Station 55,FSB,BTU,BTU,Butte,COUNTY,B,C,7540 Oro Bangor Hwy,Bangor,95914,530-679-2411,39.39039192,-121.40872513
-13530391.9054,4784261.5813,15,Active,Palermo FS,BTC Palermo FS,Station 72,FSA,BTC,BTU,Butte,COUNTY,A,P,2290 Palermo Rd,Palermo,95968,530-538-7565,39.43559886,-121.54557849
-13523803.2684,4795506.4103,16,Active,Kelly Ridge FS,BTC Kelly Ridge FS,Station 64,FSA,BTC,BTU,Butte,COUNTY,A,C,22 Walnut Ave,Oroville,95966,530-538-7228,39.51357222,-121.48639175
-13552834.2223,4792850.3787,17,Active,Richvale FS,BTC Richvale FS,Station 71,FSA,BTC,BTU,Butte,COUNTY,A,C,1236 School St,Richvale,95974,530-882-4304,39.4951628,-121.74718125
-13548590.2701,4781126.1325,18,Active,Biggs FS,BTC Biggs FS,Station 73,FSA,BTC,BTU,Butte,COUNTY,A,P,434 B St,Biggs,95917,530-868-5834,39.41384161,-121.70905718
-13546004.4954,4773873.5043,19,Active,Gridley FS,BTC Gridley FS,Station 74,FSA,BTC,BTU,Butte,COUNTY,A,C,47 East Gridley Rd,Gridley,95948,530-846-5711,39.36348872,-121.68582877
-13628720.1906,4502150.1144,20,Active,Half Moon Bay FS,CFR Half Moon Bay FS,Station 40,FSA,CZU,CZU,San Mateo,FIRE DISTRICT,A,P,1191 Main St.,Half Moon Bay,94019,650-726-8290,37.45093739,-122.4288765
-13612820.7224,4505256.4916,21,Active,Cordilleras FS,CFS Cordilleras,Station 18,FSA,CZU,CZU,San Mateo,COUNTY,A,P,300 Edmonds Rd.,Redwood City,94062,650-366-7416,37.4730872,-122.28604915
-13633093.5328,4509162.0031,22,Active,El Granada FS,CFR El Granada FS,Station 41,FSA,CZU,CZU,San Mateo,FIRE DISTRICT,A,P,555 Obispo Rd.,El Granda,94018,650-726-8291,37.50239203,-122.4681629
-13638419.5866,4513562.7074,23,Active,Point Montara FS,CFR Point Montara,Station 44,FSA,CZU,CZU,San Mateo,FIRE DISTRICT,A,P,501 Stetson St.,Moss Beach,94038,650-728-3022,37.53228193,-122.51600766
-13552250.878,4435518.4541,24,Active,Pajaro Valley FS,PAJ Pajaro Valley FS,Station 45,FSA,CZU,CZU,Santa Cruz,FIRE DISTRICT,A,P,762 Casserly Rd.,Watsonville,95076,831-722-6188,36.97424707,-121.74194098
-13560671.781,4420517.9626,25,Active,Pajaro Dunes FS,PAD Pajaro Dunes FS,Station 42,FSA,CZU,CZU,Santa Cruz,FIRE DISTRICT,A,P,2661 Beach Rd.,Watsonville,95076,831-722-7179,36.86613936,-121.81758724
-13401453.3666,4405898.2188,26,Active,Station 96 ,FCO Mendota 96,,FSA,FCO,FKU,Fresno,FIRE DISTRICT,A,P,101 Mccabe,Mendota,93640,559-655-4107,36.76137497,-120.38730389
-13385609.9098,4389386.8444,27,Active,Station 95 ,FCO Tranquility 95,,FSA,FCO,FKU,Fresno,FIRE DISTRICT,A,P,25101 W. Morton,Tranquility,93668,559-698-5500,36.64245526,-120.24497969
-13384066.9125,4335642.8559,28,Active,Station 94 ,FCO Harris Ranch 94,,FSA,FCO,FKU,Fresno,FIRE DISTRICT,A,P,24125 W. Dorris,Coalinga,93210,559-935-1323,36.25410337,-120.23111871
-13369945.6255,4328814.062,29,Active,Station 93 ,FCO Huron 93,,FSA,FCO,FKU,Fresno,FIRE DISTRICT,A,P,36421 S. Lassen,Huron,93234,559-945-9604,36.2046197,-120.10426503
-13340505.1179,4374715.668,30,Active,Station 90 ,FCO Caruthers 90,,FSA,FCO,FKU,Fresno,FIRE DISTRICT,A,P,2701 W. Tahoe,Caruthers,93609,559-864-3211,36.53663488,-119.83979645
-13334010.6752,4390513.7663,31,Active,Station 89 ,FCO Easton 89,,FSA,FCO,FKU,Fresno,FIRE DISTRICT,A,P,5810 S. Cherry,Fresno,93706,559-264-4256,36.65057749,-119.78145588
-13311996.0822,4376188.4676,32,Active,Staton 83 ,FCO Selma 83,,FSA,FCO,FKU,Fresno,FIRE DISTRICT,A,P,11500 E. Mt View,Selma,93662,559-896-2722,36.54726443,-119.58369543
-13325718.6809,4438076.0379,33,Active,Station 72,FCO Millerton 72,Millerton,FSA,FCO,FKU,Fresno,STATE,A,P,4091 Millerton Road,Friant,93626,559-822-2389,36.9925997,-119.70696763
-13324208.0481,4418436.8065,34,Active,Station 85,FCO Clovis 85,,FSA,FCO,FKU,Fresno,FIRE DISTRICT,A,P,1392 Nees,Clovis,93611,559299-7322,36.85155849,-119.69339738
-13329535.5075,4398160.4317,35,Active,Station 87,FCO South Fresno 87,,FSA,FCO,FKU,Fresno,FIRE DISTRICT,A,P,4706 East Drummond,Fresno,93727,559-485-2800,36.70566805,-119.74125477
-13311511.3677,4412337.6928,36,Active,Station 86,FCO Clovis Lakes 86,,FSA,FCO,FKU,Fresno,FIRE DISTRICT,A,P,4925 North Nelson,Clovis,93619,559-297-0506,36.80770398,-119.57934116
-13315551.8757,4392344.5444,37,Active,Station 82,FCO Del Rey 82,,FSA,FCO,FKU,Fresno,FIRE DISTRICT,A,P,9700 East American,Del Rey,93616,559-888-2898,36.66377095,-119.61563766
-13292190.5238,4439991.8469,38,Active,Station 75,FCO Tollhouse 75,,FSA,FCO,FKU,Fresno,FIRE DISTRICT,A,V,23087 Tollhouse Road,Tollhouse,93619,,37.0063443,-119.40577907
-13305886.7926,4437551.7654,39,Active,Station 74,FCO Morgan Canyon 74,,FSA,FCO,FKU,Fresno,FIRE DISTRICT,A,P,15339 Skylan Drive,Clovis,93619,,36.98883796,-119.52881475
-13310234.6167,4441098.9011,40,Active,Station 73,FCO Table MT 73,Hurley,FSAB,FCO,FKU,Fresno,FIRE DISTRICT,C,V,25627 North Auberry Road,Clovis,93619,559-855-2244,37.01428553,-119.56787191
-13281591.5571,4410130.5243,41,Active,Station 77,FCO Wounder Valley 77,,FSA,FCO,FKU,Fresno,FIRE DISTRICT,A,V,6812 West Elwood,Sanger,93657,,36.79182755,-119.31056693
-13307062.0948,4385145.0548,42,Active,Station 71,FCO Parlier 71,,FSA,FCO,FKU,Fresno,FIRE DISTRICT,A,V,1300 West Parlier,Parlier,93648,559-646-7100,36.61187492,-119.53937266
-13660890.9738,4702058.1015,43,Active,Loch Lomond FS 64,MDT Loch Lomond FS,Station 64,FSA,LNU,LNU,Lake,FIRE DISTRICT,A,V,10331 Redwood Rd,Loch Lomond,95426,707-928-5272,38.8629633,-122.71787156
-13650272.1676,4686446.4864,44,Active,Middletown FS,MDT Middletown FS,Station 60,FSA,LNU,LNU,Lake,FIRE DISTRICT,A,C,21095 Highway 175 ,Middletown,95461,707-987-9478,38.7536538,-122.62248121
-13642666.3634,4692594.0723,45,Active,Hidden Valley FS 63,MDT Hidden Valley FS,Station 63,FSA,LNU,LNU,Lake,FIRE DISTRICT,A,P,19287 Hartman Rd,Hidden Valley Lake,95461,707-785-3349,38.79670748,-122.5541571
-13661199.6679,4696212.567,46,Active,kelsey-Cobb FS 34,MDT Cobb FS,Station 62,FSA,LNU,LNU,Lake,FIRE DISTRICT,A,P,16547 Hwy 175,Cobb,95426,707-928-5411,38.82203692,-122.72064461
-13620762.8256,4635372.5829,47,Active,Yountville FS 12,NPA Yountville FS,Station 12,FSA,LNU,LNU,Napa,COUNTY,A,P,7401 Solano Ave,Yountville,94599,707-944-8887,38.39496159,-122.35739428
-13425396.4918,4487268.6602,48,Active,Atwater City Fire Station 41,ATW 41,Atwater City Fire Station 41,FSA,ATW,MMU,Merced,CITY,A,P,699 Broadway,Atwater,95301,209-357-6354,37.344735,-120.60238864
-13421816.0473,4487895.8484,49,Active,Atwater City Fire Station 42,ATW 42,Atwater City Fire Station 42,FSA,ATW,MMU,Merced,CITY,A,P,2006 Ave Two,Atwater,95301,209-357-6724,37.349214,-120.57022496
-13362400.9522,4432861.4281,50,Active,Madera County Station 1,MDC 1,Madera,FSA,MDC,MMU,Madera,COUNTY,A,P,14225 Rd 28,Madera,93637,559-661-3007,36.9551759,-120.03649008
-13332220.2171,4463634.2264,51,Active,Madera County Station 10,MDC 10,Yosemite Lakes Park,FSL,MDC,MMU,Madera,COUNTY,L,V,29453 Glacier Dr,Coarsegold,93614,559-658-7551,37.17575752,-119.76537192
-13301740.9563,4471668.7545,52,Active,Madera County Station 11,MDC 11,North Fork,FSL,MDC,MMU,Madera,COUNTY,L,V,33400 Douglas Ranger Staton,North Fork,93643,559-877-2600,37.23324392,-119.49157206
-13321324.0293,4486644.3575,53,Active,Madera County Station 12,MDC 12,Oakhurst,FSA,MDC,MMU,Madera,COUNTY,A,P,48355 Liberty Dr,Oakhurst,93644,559-683-4808,37.34027628,-119.6674898
-13311878.0904,4486367.1289,54,Active,Madera County Station 14,MDC 14,Bass Lake,FSL,MDC,MMU,Madera,COUNTY,L,V,40601 Rd 274,Bass Lake,93604,559-642-3616,37.33829627,-119.58263549
-13347677.8857,4470281.109,55,Active,Madera County Station 15,MDC 15,Raymond,FSL,MDC,MMU,Madera,COUNTY,L,V,32604 Rd 600,Raymond,93653,559-689-3016,37.22331859,-119.90423052
-13316292.2816,4495305.2096,56,Active,Madera County Station 18,MDC 18,Cedar Valley,FSL,MDC,MMU,Madera,COUNTY,L,V,44907 Lakeside Dr,Oakhurst,93644,559-683-0600,37.40210687,-119.62228884
-13348255.6857,4434184.579,57,Active,Madera County Station 19,MDC 19,Bonadelle Madera Ranchos,FSA,MDC,MMU,Madera,COUNTY,A,P,35141 Bonadelle Ave,Madera,93636,559-645-1399,36.96467352,-119.90942099
-13387132.3073,4456236.714,58,Active,Madera County Station 2,MDC 2,Chowchilla,FSL,MDC,MMU,Madera,COUNTY,L,V,141 S 2Nd St,Chowchilla,93610,559-665-2552,37.12279023,-120.25865562
-13366616.921,4446844.9067,59,Active,Madera County Station 3,MDC 3,Madera Acres,FSA,MDC,MMU,Madera,COUNTY,A,P,Tbd,Madera,93638,559-661-0507,37.05549,-120.07436277
-13323816.3244,4468669.0383,60,Active,Madera County Station 8,MDC 8,Chukchansi,FSA,MDC,MMU,Madera,COUNTY,A,P,47050 Rd 417,Coarsegold,93614,559-683-8008,37.21178633,-119.68987847
-13336164.3053,4426398.6953,61,Active,Madera County Station 9,MDC 9,Rolling Hills,FSA,MDC,MMU,Madera,COUNTY,A,P,41016 Ave 11,Madera,93638,559-435-5658,36.90876909,-119.80080227
-13364480.4324,4434357.2864,62,Active,Madera City Station 56,MDR 56,Madera City Station 56,FSA,MDR,MMU,Madera,CITY,A,P,317 N Lake St,Madera,93637,559-661-5499,36.96591315,-120.05517037
-13367656.4834,4432085.3064,63,Active,Madera City Station 57,MDR 57,Madera City Station 57,FSA,MDR,MMU,Madera,CITY,A,P,200 S Schnoor Ave,Madera,93638,559-661-5499,36.94960432,-120.08370132
-13349436.1453,4515471.8797,64,Active,Midpines Company 21,MPA 21,Midpines,FSL,MPA,MMU,Mariposa,COUNTY,L,V,6364 Hwy 140,Midpines,95345,209-966-7651,37.54588094,-119.92002524
-13356177.917,4508458.0151,65,Active,Mariposa Company 22,MRI 22,Mariposa County Fire,FSL,MRI,MMU,Mariposa,COUNTY,L,V,5273 Hwy 49,Mariposa,95338,209-966-2212,37.49590843,-119.9805876
-13367879.8079,4500415.1568,66,Active,Catheys Valley Company 23,MPA 23,Catheys Valley,FSL,MPA,MMU,Mariposa,COUNTY,L,V,2820 Hwy 140,Catheys Valley,95306,209-966-5611,37.43856336,-120.08570748
-13393029.2928,4530440.871,67,Active,Don Pedro Company 24,MPA 24,Don Pedro,FSL,MPA,MMU,Mariposa,COUNTY,L,V,9729 Merced Falls Rd,La Grange,95329,209-852-9910,37.65242032,-120.31162914
-13362592.9646,4510302.5394,68,Active,Mt Bullion Airport Company 25,MPA 25,Mt Bullion Airport,FSL,MPA,MMU,Mariposa,COUNTY,L,V,5021 Macready Wy,Mariposa,95338,209-742-6081,37.50905358,-120.03821496
-13380213.6633,4538599.7442,69,Active,Coulterville Company 26,MPA 26,Coulterville,FSL,MPA,MMU,Mariposa,COUNTY,L,V,10293 Ferry Rd,Coulterville,95311,209-878-3127,37.7104255,-120.19650439
-13338072.7395,4509618.1907,70,Active,Lushmeadows Company 29,MPA 29,Lushmeadows,FSL,MPA,MMU,Mariposa,COUNTY,L,V,6008 Monte Vista Ln,Mariposa,95338,209-742-7505,37.50417677,-119.81794603
-13372988.5022,4543641.8122,71,Active,Greeley Hill Company 31,MPA 31,Greeley Hill,FSL,MPA,MMU,Mariposa,COUNTY,L,V,10332 Fiske Rd,Coulterville,95311,209-878-3202,37.7462492,-120.13159966
-13328961.1172,4504007.8777,72,Active,Ponderosa Basin Company 32,MPA 32,Ponderosa Basin,FSL,MPA,MMU,Mariposa,COUNTY,L,V,5618 Creel Rd,Mariposa,95338,209-742-7432,37.46418465,-119.73609493
-13318357.2736,4505510.2331,73,Active,Fish Camp Company 33,MPA 33,Fish Camp,FSL,MPA,MMU,Mariposa,COUNTY,L,V,7731 Summit,Fish Camp,93623,209-683-7223,37.47489601,-119.64083898
-13345326.2302,4503925.1492,74,Active,Bootjack Company 37,MPA 37,Bootjack,FSL,MPA,MMU,Mariposa,COUNTY,L,V,3883 Bootjack Ln,Mariposa,95338,209-742-7122,37.46359478,-119.88310524
-13420675.1915,4481283.6421,75,Active,Franklin/Beachwood/McSwain Fire Station 61,MRD 61,Franklin/Beachwood/McSwain,FSA,MRD,MMU,Merced,COUNTY,A,P,961 Gurr Rd,Merced,95341,209-384-7027,37.30198019,-120.55997648
-13426660.5115,4493174.6755,76,Active,Winton Fire Station 63,MRD 63,Winton,FSA,MRD,MMU,Merced,COUNTY,A,P,6825 N Winton Way,Winton,95388,209-358-2842,37.38690159,-120.61374352
-13432699.0199,4498112.1151,77,Active,Cressey Fire Station 64,MRD 64,Cressey,FSA,MRD,MMU,Merced,COUNTY,A,P,9255 Cressey Way,Cressey,95312,209-394-8211,37.42213475,-120.66798837
-13407026.7687,4511805.67,78,Active,Snelling Fire Station 65,MRD 65,Snelling,FSA,MRD,MMU,Merced,COUNTY,A,P,15974 Lewis St,Snelling,95369,209-563-6661,37.51976407,-120.43737061
-13452761.7777,4447755.6055,79,Active,Los Banos Fire Station 71,MRD 71,Los Banos,FSA,MRD,MMU,Merced,COUNTY,A,P,525 H Street,Los Banos,93635,209-826-2895,37.06201859,-120.84821519
-13471843.8192,4452164.6565,80,Active,Santa Nella Fire Station 72,MRD 72,Santa Nella,FSA,MRD,MMU,Merced,COUNTY,A,P,29190 W Centinella Rd,Santa Nella,95332,209-826-6339,37.0936179,-121.01963208
-13469853.0154,4474938.3075,81,Active,Gustine Fire Station 74,MRD 74,Gustine,FSA,MRD,MMU,Merced,COUNTY,A,P,686 3Rd St,Gustine,95322,209-854-6804,37.25662489,-121.00174839
-13429198.217,4445644.5573,82,Active,Dos Palos Wye Fire Station 75,MRD 75,Dos Palos Wye,FSA,MRD,MMU,Merced,COUNTY,A,P,8047 W Dairy Ln,Dos Palos,93620,209-387-4223,37.04688422,-120.63654012
-13428253.2334,4437033.5964,83,Active,Dos Palos Fire Station 76,MRD 76,Dos Palos City,FSA,MRD,MMU,Merced,COUNTY,A,P,1540 Golden Gate Ave,Dos Palos,93620,209-392-2081,36.98511992,-120.62805119
-13412458.2163,4479722.4769,84,Active,Merced Fire Station 81,MRD 81,Merced,FSA,MRD,MMU,Merced,COUNTY,A,P,735 Martin Luther King Jr Blvd,Merced,95340,209-385-7336,37.29082379,-120.48616213
-13413159.0231,4457849.2852,85,Active,El Nido Fire Station 83,MRD 83,El Nido,FSA,MRD,MMU,Merced,COUNTY,A,P,10537 S Hwy 59,El Nido,95317,209-722-8452,37.13433967,-120.49245759
-13386086.0764,4471285.6881,86,Active,Le Grand Fire Station 84,MRD 84,Le Grand,FSA,MRD,MMU,Merced,COUNTY,A,P,3875 Santa Fe Ave,Le Grand,95333,209-389-4868,37.23050416,-120.24925717
-13407766.6601,4484504.1251,87,Active,McKee Fire Station 85,MRD 85,McKee,FSA,MRD,MMU,Merced,COUNTY,A,P,3360 N Mckee Rd,Merced,95340,209-723-4510,37.32498918,-120.44401717
-13394061.0674,4479742.6284,88,Active,Planada Fire Station 86,MRD 86,Planada,FSA,MRD,MMU,Merced,COUNTY,A,P,9234 E Broadway,Planada,95365,209-382-0502,37.2909678,-120.32089773
-13444950.8336,4499261.8456,89,Active,Delhi Fire Station 91,MRD 91,Delhi,FSA,MRD,MMU,Merced,COUNTY,A,P,16056 W Acacia St,Delhi,95315,209-634-5007,37.43033676,-120.77804828
-13436370.5649,4502331.4677,90,Active,Ballico Fire Station 92,MRD 92,Ballico,FSA,MRD,MMU,Merced,COUNTY,A,P,11284 Ballico Ave,Ballico,95303,209-634-1022,37.45223057,-120.70097042
-13453043.3165,4495448.2818,91,Active,Hilmar Fire Station 95,MRD 95,Hilmar,FSA,MRD,MMU,Merced,COUNTY,A,P,20021 W Falke St,Hilmar,95324,209-634-7070,37.40312793,-120.85074429
-13438775.2735,4492904.8667,92,Active,Livingston Fire Station 96,MRD 96,Livingston,FSA,MRD,MMU,Merced,COUNTY,A,P,1430 C Street,Livingston,95334,209-394-7919,37.38497579,-120.72257228
-13453066.2327,4484848.2009,93,Active,Stevinson Fire Station 97,MRD 97,Stevinson,FSA,MRD,MMU,Merced,COUNTY,A,P,2738 Lander Ave,Stevinson,95374,209-634-7086,37.32744706,-120.85095015
-13375387.503,4451933.7475,94,Active,Madera County Station 5,CWF 5,CCWF,FSA,CWF,MMU,Madera,STATE,A,P,23370 Rd 22,Chowchilla,93610,559-665-5531,37.09196326,-120.15315025
-12934452.8504,3844900.8004,95,Active,San Diego County Fire Jucumba Station #43,SDF Jacumba ST# 43,Station #43,FSA,SDU,SDU,San Diego,COUNTY,A,C,1255 Jucumba Street,Jacumba,91934,619-766-4535,32.61944695,-116.19216687
-12945284.3126,3851552.8943,96,Active,San Diego Fire Authority Boulevarde Station #47,BLV Boulevard Vol ST#47,,FSAB,SDU,SDU,San Diego,COUNTY,A,C,39223 Highway 94,Boulevard,91905,619-766-4633,32.6697641,-116.28946755
-12965577.4886,3843162.1228,97,Active,Campo Reservation Station,CBK Campo Tribal,,FSL,SDU,SDU,San Diego,TRIBAL,F,C,31577 Highway 94,Campo,91906,619-478-5516,32.60629076,-116.47176425
-12969100.7807,3853003.3067,98,Active,San Diego County Fire Lake Morena Station #42,SDF Lake Morena ST#42,Station #42,FSA,SDU,SDU,San Diego,COUNTY,A,P,29690 Oak Drive,Campo,91906,619-478-5960,32.68073143,-116.50341453
-12960091.7722,3876415.9859,99,Active,San Diego County Fire Mt. Laguna #49,MLG Mt. Laguna Vol ST#49,Station #49,FSA,SDU,SDU,San Diego,COUNTY,A,V,Sunrise Highway,Luguna,91962,619-473-8281,32.85758027,-116.42248523
-12972034.8475,3871733.9947,100,Active,San Diego County Fire Pine Valley Station #44,SDF Pine Valley ST#44,Station #44,FSA,SDU,SDU,San Diego,COUNTY,A,C,28850 Old Highway 80,Pine Valley,91962,619-473-8445,32.82224273,-116.5297717
-12981666.8877,3876948.5415,101,Active,San Diego County Fire Descanso #45,SDF Descanso ST#45,Station #45,FSA,SDU,SDU,San Diego,FIRE DISTRICT,A,C,9718 River Road,Descanso,91916,619-445-4731,32.86159887,-116.61629779
-12983146.7828,3839386.29,102,Decommissioned,San Diego County Fire Tecate CLOSED,SDF Tecate ST#38,,FSA,SDU,SDU,San Diego,COUNTY,A,V,440 Tecate Road,Tecate,91980,619-478-9005,32.57771317,-116.62959191
-12982148.8006,3843279.9437,103,Decommissioned,San Diego County Fire Potrero #39 CLOSED,SDF Potrero ST#39,Potrero #39,FSA,SDU,SDU,San Diego,COUNTY,L,V,25130 Highway 94,Potrero,91963,619-478-5900,32.60718235,-116.62062688
-12998429.113,3844974.3688,104,Decommissioned,San Diego County Fire Dulzura CLOSED,SDF Dulzura ST#35,Station #35,FSL,SDU,SDU,San Diego,COUNTY,L,V,1135 Commiunity Building,Dulzura,91917,619-468-3256,32.62000361,-116.76687542
-12996942.5578,3853229.9973,105,Active,San Diego County Fire Deerhorn #37,SDR Deerhorn Valley ST#37,Station 37,FSA,SDU,SDU,San Diego,COUNTY,A,P,2383 Honeysprings Road,Jamul,91935,619-468-3030,32.68244544,-116.75352146
-13003508.9208,3857958.7137,106,Active,San Diego County Fire Lee Valley CLOSED,SDF LEE ValleyST#34,,FSL,SDU,SDU,San Diego,FIRE DISTRICT,L,V,15781 Lyons Valley Road,Jamul,91935,,32.71819167,-116.81250811
-13009833.2176,3856145.384,107,Active,San Diego County Fire Jamul #36,SDF Jamul ST#36,Station #36,FSA,SDU,SDU,San Diego,COUNTY,A,P,14024 Peaceful Valley Rd,Jamul,91935,619-669-6580,32.70448569,-116.86932023
-12998588.4554,3863029.2945,108,Decommissioned,San Diego County Fire Lawson Valley CLOSED,SDF Lawson Valley ST#33,Station #33,FSL,SDU,SDU,San Diego,FIRE DISTRICT,L,V,3890 Montiel Trucktrail,Jamul,91935,619-659-0887,32.75650626,-116.76830681
-13005805.8033,3867559.035,109,Decommissioned,San Diego County Fire Dehesa CLOSED,SDR Dehesa ST#25,,FSL,SDU,SDU,San Diego,FIRE DISTRICT,L,V,5425 Dehesa Road ,El Cajon,92019,619-445-8464,32.79072019,-116.83314135
-13005466.9973,3871511.1363,110,Active,San Diego County Fire Harbison Canyon #24,SDF Harbison Cayon ST#24,Station #24,FSA,SDU,SDU,San Diego,COUNTY,A,P,551 Harbinson Canyon Rd,El Cajon,92019,619-445-5001,32.82056036,-116.83009781
-13015697.9012,3839489.2172,111,Decommissioned,San Diego County Fire Otay #22,SDF Otay ST#22,Station 22,FSA,SDU,SDU,San Diego,COUNTY,A,P,446 Alta Road,San Diego,92154,619-661-2820,32.57849232,-116.92200358
-13002124.9497,3895419.7418,112,Active,San Diego County Ramona #81,RAM Ramona ST#81,Station 81,FSA,SDU,SDU,San Diego,DISTRICT OTHER,A,P,24462 San Vicente Road,Ramona,92065,760-788-2229,33.00086745,-116.80007568
-13014141.5303,3896842.5198,113,Active,San Diego County Ramona #82,RAM Ramona ST#82,Station #82,FSA,SDU,SDU,San Diego,DISTRICT OTHER,A,C,3410 Dye Road,Ramona,92065,760-788-2269,33.01158577,-116.90802246
-13009355.4493,3900194.7469,114,Active,San Diego County Ramona  #80,RAM Ramona,Station #80,FSA,SDU,SDU,San Diego,DISTRICT OTHER,A,C,829 San Vicente Road,Ramona,92065,760-788-2222,33.03683419,-116.86502837
-12998626.0756,3905039.9493,115,Active,San Diego County Fire Intermountain #85,SDF Intermountain #85,Station #85,FSA,SDU,SDU,San Diego,COUNTY,A,P,25858 Highway 78,Ramona,92065,760-789-3710,33.07331468,-116.76864476
-12978283.984,3894299.365,116,Active,Julian- Cuyamaca FPD,JVF Cuyamca ST#57,Station #57,FSA,SDU,SDU,San Diego,COUNTY,L,V,34560 Engineers Rd,Julian,92036,760-765-418,32.9924263,-116.58590864
-12977723.246,3903770.1472,117,Active,Julian-Cuyamaca FPD #56,Julian ST#56,Station #56,FSA,SDU,SDU,San Diego,COUNTY,L,P,3407 Hwy 79,Julian,92036,760-765-1510,33.08185667,-116.60425889
-12961843.8562,3905569.3203,118,Active,San Diego County Fire Shelter Valley #62,SDF Shelter Valley ST#53,Station #53,FSA,SDU,SDU,San Diego,COUNTY,L,V,7241 Hardscramble Rd,Sheleter Valley,92004,760-765-2893,33.07729948,-116.43822446
-12971604.8189,3923304.9921,119,Active,San Diego County Fire Ranchita #58,SDF Ranchita ST#58,Station #58,FSA,SDU,SDU,San Diego,COUNTY,L,V,37370 Montezuma,Rancita,92025,760-782-3467,33.21069978,-116.52590868
-12928618.0744,3914373.043,120,Active,San Diego County Fire Station #61,SDF Ocotillo Wells ST#54,Station 54,FSA,SDU,SDU,San Diego,COUNTY,A,P,5997 Highway 78,Ocotillo Wells,92004,760-767-3183,33.14354273,-116.13975219
-12995358.96,3942180.092,121,Active,San Diego County Fire Sunshine Summit #59,SDF Sunshine Summit ST#59,Station #59,FSA,SDU,SDU,San Diego,COUNTY,L,V,35227 Highway79,Warner Springs,92086,760-782-9113,33.35244738,-116.73929576
-12984808.2401,3931641.319,122,Active,Warner Springs FS #52,MVU Warner Springs FS #52,Station 52,FSB,SDU,SDU,San Diego,STATE,B,P,31049 Hwy 79,Warner Springs,92086,760-782-3555,33.27333204,-116.64451703
-13009083.3085,3936859.0209,123,Active,San Diego County Fire Palomar #79,SDF Palomar Mountain ST#79,Station #79,FSA,SDU,SDU,San Diego,COUNTY,A,P,21610 Crestline Road,Palomar,92060,760-742-3701,33.31251069,-116.86258368
-13056173.1196,3953719.6829,124,Decommissioned,San Diego County Fire De Luz #18,SDF Deluz ST#18,Station #18,FSL,SDU,SDU,San Diego,COUNTY,L,V,40020 Cathy Road,Fallbrook,92028,760-728-3300,33.43899356,-117.28559865
-12954464.0021,3930081.4511,125,Active,San Diego County Fire Borrego Springs #60,BGO Borrego Springs ST#91,Station 91,FSA,SDU,SDU,San Diego,COUNTY,L,V,2334 Stirrup Road,Borrego Springs,92004,760-767-5436,33.26161588,-116.37193011
-13041496.9882,3929158.6279,126,Active,Deer Springs FPD #11,DSF Deer Springs ST#11,Station #11,FSA,SDU,SDU,San Diego,FIRE DISTRICT,A,P,8709 Circle Drive,Escondido,92026,760-749-8001,33.25468387,-117.15376072
-13038417.2634,3921263.7369,127,Active,Deer Springs FPD #12,DSF Deer Springs STA#12,Station #12,FSA,SDU,SDU,San Diego,FIRE DISTRICT,A,P,1321 Deer Springs Road,San Marcos,92069,760-741-5512,33.19535668,-117.12609508
-13036623.8873,3923972.8427,128,Active,Deer Springs FPD #13,DSF Deer Springs ST#13,Station #13,FSA,SDU,SDU,San Diego,FIRE DISTRICT,A,P,10308 Meadow Glen Way East,Escondido,92026,760-751-0820,33.21571914,-117.10998491
-13507237.0573,4685400.4332,129,Active,Dry Creek FS,CDF 100,Station 100,FSA,NEU,NEU,Placer,COUNTY,A,C,8350 Cook Riolo Road,Roseville,95747,916-771-0107,38.74632524,-121.33757495
-13504991.6146,4698690.4988,130,Active,Sunset FS,CDF 77,Station 77,FSA,NEU,NEU,Placer,COUNTY,A,P,1300 Athens Avenue,Lincoln,95648,916-408-7873,38.83937711,-121.31740379
-13498860.7891,4710981.3409,131,Active,Lincoln FS,CDF 70,Station 70,FSA,NEU,NEU,Placer,COUNTY,A,P,1112 Wise Road,Lincoln,95648,916-645-2360,38.92532465,-121.26232965
-13484218.6794,4707896.4069,132,Active,Ophir FS,CDF 182,Station 182,FSA,NEU,NEU,Placer,COUNTY,A,P,9305 Wise Road,Auburn,95603,530-823-4124,38.90376205,-121.13079734
-13480785.7681,4712364.3427,133,Active,Atwood FS,CDF 180,Station 180,FSA,NEU,NEU,Placer,COUNTY,A,P,11645 Atwood Road,Auburn,94603,530-823-4155,38.9349892,-121.09995897
-13501060.4635,4724886.4977,134,Active,Thermalands FS,PCF STATION 74,Company 74,FSA,NEU,NEU,Placer,COUNTY,A,V,8500 Lakeview Ln.,Lincoln,95648,916-645-7315,39.02243541,-121.28208966
-13511498.4902,4718867.3471,135,Active,Sheridan FS,PCF STATION 78,Company 78,FSA,NEU,NEU,Placer,COUNTY,A,V,4952 Riosa Rd,Sheridan,95681,530-633-0178,38.98041525,-121.37585605
-13512478.6711,4706987.1995,136,Active,Paige FS,PCF STATION 75,Company 75,FSA,NEU,NEU,Placer,COUNTY,A,V,5390 Nicolaus Rd,Lincoln,95648,916-645-3213,38.89740579,-121.38466117
-13451749.5458,4751129.4955,137,Active,Dutch Flat FS,PCF STATION 32,Company 32,FSA,NEU,NEU,Placer,COUNTY,A,V,980 Sacramento St,Dutch Flat,95714,530-389-2234,39.20534806,-120.83912215
-13481572.336,4721388.1409,138,Active,Lone Star FS,PCF STATION 184,Station 184,FSA,NEU,NEU,Placer,COUNTY,A,V,6150 Grass Valley Hwy,Auburn,95603,530-823-4117,38.99801613,-121.10702483
-13057617.7663,4011909.4025,139,Active,CAL FIRE Training Center South,RRU CLARK TRAINING CENTER,Ben Clark Training Center,TC,RRU,RRU,Riverside,COUNTY,A,P,16791 Davis Avenue,Riverside,92518,951-486-2800,33.87409637,-117.29857614
-13534512.8617,4447081.1546,140,Active,SSCCFD - Masten Fire Station 2,Station 2,Masten Fire Station,FSA,SCU,SCU,Santa Clara,FIRE DISTRICT,A,P,10810 No Name Uno,Gilroy,95020,408-842-3713,37.05718375,-121.58259767
-13539546.8726,4440656.402,141,Active,SSCCFD - Treehaven Fire Station 3,Station 3,Treehaven Fire Station,FSA,SCU,SCU,Santa Clara,FIRE DISTRICT,A,P,3050 Hecker Pass Hwy,Giltroy,95020,408-842-3138,37.0111116,-121.62781896
-13567723.5243,4522591.5608,142,Active,Sunol Fire Station 14,SCU Sunol ,Sunol Fire Station,FSAB,SCU,SCU,Alameda,STATE,C,P,11345 Pleasanton-Sunol Rd,Pleasanton,94586,925-862-2197,37.59657327,-121.88093413
-13614361.8033,4941765.1533,143,Active,Redding FS,SHS Redding FS,Station #43,FSB,SHU,SHU,Shasta,STATE,B,P,6103 Airport Road,Redding,96002,530-224-2440,40.51977388,-122.29989291
-13607595.9359,4947857.936,144,Active,Palo Cedro FS,SHS Palo Cedro FS,Station #32,FSA,SHU,SHU,Shasta,COUNTY,A,P,9418 Deschutes Road,Palo Cedro,96073,530-547-2432,40.56136753,-122.23911409
-13441967.0575,4225689.3572,145,Active,Morro Toro FS,SLU Morro-Toro Stn,#14,FSA,SLU,SLU,San Luis Obispo,COUNTY,A,V,15325 Hwy 41,Atascadero,93422,805-466-5089,35.45354867,-120.75124456
-13451163.1023,4206009.7623,146,Active,South Bay FS,SLU South Bay Stn,SBTC,FSA,SLU,SLU,San Luis Obispo,DISTRICT OTHER,A,P,2315 Bayview Heights Drive,Los Osos,93402,805-528-1053,35.30941347,-120.83385404
-13429176.6394,4196286.4329,147,Active,Airport FS,SLU Airport Stn,#21,FSA,SLU,SLU,San Luis Obispo,COUNTY,A,P,4651 Broad Street,San Luis Obispo,93401,805-544-5105,35.23810389,-120.63634628
-13423732.5215,4170250.2931,148,Active,Mesa FS,SLU Mesa Stn,#22,FSA,SLU,SLU,San Luis Obispo,COUNTY,A,P,2391 Willow Road,Arroyo Grande,93405,805-473-7171,35.04684957,-120.58744094
-13467910.1511,4267196.6879,149,Active,Oak Shores FS,SLU Oak Shores Stn,#34,FSA,SLU,SLU,San Luis Obispo,COUNTY,A,V,2569 Shoreline Drive,Paso Robles,93446,805-427-9548,35.75670669,-120.98429534
-13456935.3855,4262433.5394,150,Active,Heritage Ranch FS,SLU Heritage Ranch Stn,#33,FSA,SLU,SLU,San Luis Obispo,COUNTY,A,P,4820 Heritage Road,Paso Robles,93446,805-227-6553,35.72197633,-120.88570734
-13422740.5453,4254018.8929,151,Active,Meridian FS,SLU Meridian Stn,#52,FSA,SLU,SLU,San Luis Obispo,COUNTY,A,P,4050 Branch,Paso Robles,93446,805-237-3155,35.66058418,-120.57852987
-13416382.6241,4235645.8787,152,Active,Creston FS,SLU Creston Stn,#50,FSA,SLU,SLU,San Luis Obispo,COUNTY,A,P,6055 Webster Rd,Creston,93432,805-238-4343,35.526373,-120.52141569
-13614775.8543,4461453.453,153,Active,Chalk Mountain COM,CZU Chalk Mountain COM,Tone 13,COM,CZU,CZU,Santa Cruz,STATE,B,P,P.O. Drawer F-2,Felton,95018,,37.1605915,-122.29013698
-13591447.4939,4470185.3427,154,Active,Mount Bielawski COM/LO,CZU Mount Bielawski COM/LO,Tone 8,COM/LO,CZU,CZU,Santa Cruz,STATE,B,P,7 Mi W Los Gatos,Felton,95018,,37.22263371,-122.09405017
-13613814.7817,4493217.309,155,Active,Allen Peak COM/LO,CZU Allen Peak COM/LO,Tone 12,COM/LO,CZU,CZU,San Mateo,STATE,B,P,P.O. Drawer F-2,Felton,95018,,37.38720601,-122.29497894
-13332420.0986,4412598.463,156,Active,Southern Region RHQ,FKU Southern Region RHQ,,RHQ,FKU,FKU,Fresno,STATE,B,P,1234 East Shaw,Fresno,93710,559-222-2129,36.80957953,-119.76716749
-13325048.1444,4407333.0152,157,Active,Fresno ICC,FKU Fresno ICC,,ICC,FKU,FKU,Fresno,STATE,B,P,2311 North Clovis Ave,Fresno,93727,559-294-6825,36.77170005,-119.7009441
-13278424.8626,4403746.1682,158,Active,Bear Mountain COM/LO,FKU Bear Mountain COM/LO,,COM/LO,FKU,FKU,Fresno,STATE,B,P,30769 Bear Mtn,Squaw Valley,93646,,36.74588563,-119.28212003
-13297320.5007,4440882.2181,159,Active,Black Mountain COM/LO,FKU Black Mountain COM/LO,,COM/LO,FKU,FKU,Fresno,STATE,B,P,Black Mountain Road,Clovis,93619,N/A,37.01273126,-119.45186244
-13403237.8997,4342552.2128,160,Active,Joaquin Ridge COM,FKU Joaquin Ridge COM,,COM,FKU,FKU,Fresno,STATE,B,P,,Coalinga,93210,,36.30413896,-120.40333462
-13790560.6776,4963647.8241,161,Decommissioned,Iaqua Butte LO,HUU Iaqua Butte LO,,LO,HUU,HUU,Humboldt,STATE,B,P,21 Mi Ne Fortuna,,,,40.66904042,-123.88271433
-13820034.5901,4952392.4995,162,Active,Humboldt-Del Norte ECC,HUU Humboldt-Del Norte ECC,,ECC,HUU,HUU,Humboldt,STATE,B,P,118 S. Fortuna Blvd,Fortuna,95540-0425,707-726-1280,40.59230707,-124.14748299
-13819997.9264,4952402.3257,163,Active,Humboldt-Del Norte UH,HUU Humboldt-Del Norte UH,,HQ,HUU,HUU,Humboldt,STATE,B,P,118 S. Fortuna Blvd,Fortuna,95540-0425,707-725-4413,40.5923741,-124.14715364
-13801157.5648,4910615.6659,164,Active,Grasshopper Mountain COM/LO,HUU Grasshopper Mountain COM/LO,HUUL T11,COM/LO,HUU,HUU,Humboldt,STATE,B,P,6 Mi Southeast Weott,Weott,95571,,40.30672218,-123.97790779
-13816981.8759,4926756.4545,165,Active,Mount Pierce COM,HUU Mount Pierce COM,HUUL T12/ HCFN T2,COM,HUU,HUU,Humboldt,STATE,B,P,4 Mi Southwest Of Scotia,Scotia,95565,,40.41720388,-124.12006
-13769390.616,4883419.1913,166,Active,Pratt Mountain COM,HUU Pratt Mountain COM,HUUL T10/ HCFN T1,COM,HUU,HUU,Humboldt,STATE,B,P,5 Miles East Of Garberville,Alderpoint,95511,,40.1201563,-123.69254043
-13793377.9232,5089911.9325,167,Active,Red Mountain COM,HUU Red Mountain COM,,COM,HUU,HUU,Del Norte,FEDERAL,B,P,7 Miles East Of Klamath,Crescent City,95531,,41.52379604,-123.90802208
-13825111.8172,4957973.9312,168,Active,Tompkins Hill COM,HUU Tompkins Hill COM,,COM,HUU,HUU,Humboldt,CITY,L,C,2 Miles Southeast Of Loleta,Loleta,95551,,40.6303696,-124.1930925
-13473225.9295,4901166.1994,169,Active,Dyer Mountain COM/LO,LMU Dyer Mountain COM/LO,,COM/LO,LMU,LMU,Lassen,FEDERAL,B,P,P.O. Box 1077,Westwood,96137,530-256-3203,40.24195751,-121.03204779
-13446510.7348,5053296.5807,170,Active,Manzanita Mountain LO,LMU Manzanita Mountain LO,,LO,LMU,LMU,Modoc,FEDERAL,B,P,702 East 8Th St.,Alturas,96101,530-233-2723,41.27707042,-120.79206111
-13464803.662,4924590.5409,171,Active,Pegleg Mountain LO,LMU Pegleg Mountain LO,,LO,LMU,LMU,Lassen,STATE,B,P,P.O. Box 1077,Westwood,96137,530-256-3203,40.40238872,-120.95638927
-13471664.0089,5008179.2206,172,Active,Snag Hill LO,LMU Snag Hill LO,,LO,LMU,LMU,Lassen,STATE,B,P,P.O. Box 36,Bieber,96009,530-294-5251,40.97176865,-121.01801682
-13433614.4417,4927741.6943,173,Active,Lassen-Modoc UH,LMU Lassen-Modoc UH,,HQ,LMU,LMU,Lassen,STATE,B,P,697-345 Highway 36,Susanville,96130,530-257-4171,40.42394157,-120.67621174
-13430726.3144,4927391.3893,174,Active,Susanville ICC,LMU Susanville ICC,,ICC,LMU,LMU,Lassen,FEDERAL,B,P,1491 Fifth St.,Susanville,96130,530-257-5575,40.42154593,-120.65026725
-13494486.1268,5023048.9164,175,Active,Big Valley Mountain COM,LMU Big Valley Mountain COM,,COM,LMU,LMU,Lassen,STATE,B,P,P.O. Box 36,Bieber,96009,530-257-5575,41.07254637,-121.22303139
-13436855.5776,4939897.1467,176,Active,Don Landon LO,LMU Don Landon LO,,LO,LMU,LMU,Lassen,STATE,B,P,697-345 Hwy36,Susanville,96130,530-257-3778,40.50701624,-120.70532736
-13424968.436,4966418.998,177,Active,Fredonyer Peak COM/LO,LMU Fredonyer Peak COM/LO,,COM/LO,LMU,LMU,Lassen,STATE,B,P,515-350 Hwy 139,Susanville,96130,530-257-3778,40.68791914,-120.59854335
-13421119.3874,5035268.1056,178,Active,Likely Mountain COM/LO,LMU Likely Mountain COM/LO,,COM/LO,LMU,LMU,Lassen,STATE,B,P,702 East 8Th St.,Alturas,96101,530-233-2723,41.15524506,-120.56396676
-13448649.6547,4934551.7214,179,Active,Roop Mountain COM,LMU Roop Mountain COM,,COM,LMU,LMU,Lassen,STATE,B,P,697-345 Highway 36,Susanville,96130,530-257-5575,40.47049638,-120.81127536
-13398208.8781,4931063.5808,180,Active,Shaffer Mountain COM,LMU Shaffer Mountain COM,,COM,LMU,LMU,Lassen,STATE,B,P,697-345 Highway 36,Susanville,96130,530-257-3778,40.44665469,-120.35815815
-13502695.2357,5035749.9795,181,Active,Widow Mountain COM,LMU Widow Mountain COM,,COM,LMU,LMU,Lassen,STATE,B,P,P.O. Box 36,Bieber,96009,530-257-5575,41.15850428,-121.29677507
-13637753.0351,4657111.3271,182,Active,Sonoma-Lake-Napa ECC,LNU Sonoma-Lake-Napa ECC,"""St Helena""",ECC,LNU,LNU,Napa,STATE,C,P,1199 Big Tree Rd,St. Helena,94574,707-963-4112,38.54790547,-122.51001992
-13544972.9879,4658148.6076,183,Active,Davis Mobile Equipment Facility,SHQ Mobile Equipment,,EQF,SHQ,LNU,Yolo,STATE,B,P,5950 Chiles Road,Davis,95618,530-753-2407,38.55513887,-121.67656258
-13661697.0871,4643185.243,184,Active,Northern Region RHQ,LNU Northern Region RHQ,,RHQ,LNU,LNU,Sonoma,STATE,B,P,135 Ridgeway Ave,Santa Rosa,95402,707-576-2275,38.4525254,-122.725113
-13637823.7992,4657093.3582,185,Active,Sonoma-Lake-Napa UH,LNU Sonoma-Lake-Napa UH,LNU Headquarters,HQ,LNU,LNU,Napa,STATE,C,P,1199 Big Tree Rd,St. Helena,94574,707-967-1400,38.54758624,-122.51065561
-13602126.7672,4673594.7933,186,Active,Berryessa Peak COM,LNU Berryessa Peak COM,,COM,LNU,LNU,Yolo,STATE,B,P,,Brooks,95606,N/A,38.66366757,-122.18998371
-13675064.5593,4688014.726,187,Active,Geyser Peak COM,LNU Geyser Peak COM,,COM,LNU,LNU,Sonoma,STATE,B,P,8770 Geysers Rd,Geyserville,95441,N/A,38.76463921,-122.84519505
-13688093.0011,4656005.813,188,Active,Mount Jackson COM,LNU Mount Jackson COM,,COM,LNU,LNU,Sonoma,STATE,B,P,15008 Sweetwater Springs Rd,Guerneville,95446 ,N/A,38.54008447,-122.96223153
-13666224.5516,4718031.1505,189,Active,Mount Konocti Lookout,LNU Mount Konocti COM/LO,,COM/LO,LNU,LNU,Lake,STATE,B,P,8948 State Hwy 175,Kelseyville,95451,N/A,38.97463839,-122.76578391
-13651462.4616,4674383.605,190,Active,Mount Saint Helena COM,LNU Mount Saint Helena COM,,COM,LNU,LNU,Sonoma,STATE,B,P,,Middletown,95461,N/A,38.66911867,-122.6331738
-13592792.1435,4636164.721,191,Active,Mount Vaca COM,LNU Mount Vaca COM,,COM,LNU,LNU,Solano,STATE,B,P,6961 Blue Ridge Rd,Vacaville,95687,N/A,38.40053843,-122.10612936
-13724545.4654,4683529.4069,192,Active,Oak Ridge COM,LNU Oak Ridge COM,,COM,LNU,LNU,Sonoma,STATE,B,P,25555 Kelly Rd,Annapolis,95412,N/A,38.73321543,-123.28968959
-13659980.3403,4703635.2561,193,Active,Seigler Mountain COM,LNU Seigler Mountain COM,,COM,LNU,LNU,Lake,STATE,B,P,11000 Observation Rd,Loch Lomond,95426,N/A,38.87396747,-122.7096912
-13635351.7639,4735807.0359,194,Active,Walker Ridge COM,LNU Walker Ridge COM,,COM,LNU,LNU,Colusa,STATE,B,P,,Williams,95987,N/A,39.09860891,-122.48844894
-13727823.31,4771323.4675,195,Active,Mendocino UH,MEU Mendocino UH,,HQ,MEU,MEU,Mendocino,STATE,B,P,17501 North Highway 101,Willits,95490,707-459-7414,39.34577605,-123.31913497
-13756810.9524,4820490.3485,196,Active,Cahto Peak COM,MEU Cahto Peak COM,,COM/LO,MEU,MEU,Mendocino,FEDERAL,B,P,Cahto Road At Mp 6.50,Laytonville,95454,,39.6865019,-123.57953539
-13750493.4081,4724887.2877,197,Active,Cold Springs COM,MEU Cold Springs COM,,COM/LO,MEU,MEU,Mendocino,STATE,B,P,Signal Ridge Road At Mp 4.10,Boonville,95415,,39.0224411,-123.52278393
-13745884.5207,4838158.4982,198,Active,Iron Peak COM,MEU Iron Peak COM,,COM/LO,MEU,MEU,Mendocino,STATE,B,P,Iron Peak Road At Mp 1.5,Laytonville,95454,,39.80853348,-123.48138159
-13724152.4703,4768449.5784,199,Active,Laughlin Ridge COM,MEU Laughlin Ridge COM,,COM,MEU,MEU,Mendocino,STATE,B,P,Laughlin Peak Road At Mp 2.50,Willits,95490,,39.32580836,-123.28615926
-13688352.7307,4843620.9022,200,Active,Anthony Peak,MEU Anthony Peak LO,,LO,MEU,MEU,Mendocino,FEDERAL,F,P,End Of Mnf Forest Route 23N60,Covelo,95428,,39.84621779,-122.96456472
-13358729.4019,4207584.2099,201,Active,Carrizo Plain FS,SLU Carrizo Plain Stn,#42,FSA,SLU,SLU,San Luis Obispo,COUNTY,A,P,"13080 Soda Lake Rd, Pob 3099",California Valley,93453,805-475-2322,35.32095429,-120.00350798
-13434526.9959,4185948.8996,202,Active,Shell Beach FS,SLU Shell Beach Stn,#63,FSAB,SLU,SLU,San Luis Obispo,CITY,C,P,2555 Shell Beach Road,Pismo Beach,93449,805-773-7051,35.16222101,-120.68440935
-13438337.4198,4190242.8871,203,Active,Avila Valley FS,SLU Avila Valley Stn,#62,FSA,SLU,SLU,San Luis Obispo,COUNTY,A,P,1551 Sparrow Street,San Luis Obispo,93405,805-595-2115,35.19374973,-120.71863897
-13429626.4517,4183481.3644,204,Active,Pismo Beach FS,SLU Pismo Stn,#64,FSA,SLU,SLU,San Luis Obispo,CITY,A,P,1000 Bello Street,Pismo Beach,93449,805-773-7050,35.14409754,-120.64038702
-13419104.4834,4219418.2386,205,Active,Parkhill FS,SLU Parkhill Stn,#40,FSAB,SLU,SLU,San Luis Obispo,STATE,C,P,6140 Parkhill Rd,Santa Margarita,93453,805-438-5426,35.40764635,-120.54586657
-13400778.2806,4253426.6606,206,Active,Shandon FS,SLU Shandon Stn,#51,FSB,SLU,SLU,San Luis Obispo,STATE,C,P,501 W. Center St,Shandon,93461,805-238-4957,35.65626154,-120.38123949
-13435761.0031,4243172.4876,207,Active,Paso Robles FS,SLU Paso Robles Stn,#30,FSAB,SLU,SLU,San Luis Obispo,STATE,C,P,2510 Ramada Dr,Paso Robles,93446,805-227-6553,35.58138058,-120.69549463
-13481276.5694,4242007.4178,208,Temporarily Decommissioned,Cambria FS,SLU Cambria STN,#10,FSB,SLU,SLU,San Luis Obispo,STATE,C,P,6126 Coventry Ln,Cambria,93428,805-927-4262,35.57286827,-121.10436792
-13412540.3626,4169413.1118,209,Active,Nipomo FS,SLU Nipomo Stn,#20,FSAB,SLU,SLU,San Luis Obispo,STATE,C,P,450 Pioneer Av,Nipomo,93444,805-929-3911,35.04069241,-120.48690007
-13405263.543,4572680.1638,210,Active,Jamestown,TLU Jamestown Station,Sta 76,FSA,TCU,TCU,Tuolumne,FIRE DISTRICT,A,P,18249  4Th Ave,Jamestown,95327,209-984-5623,37.95222811,-120.42153128
-13394511.9156,4576116.62,211,Active,Mono Village,TLU Mono Village Station,Sta 51,FSA,TCU,TCU,Tuolumne,COUNTY,A,P,19500 Hillsdale Dr,Sonora,95370,209-532-5983,37.97656596,-120.32494777
-12946582.7057,3984899.8811,212,Active,STN32 Christopher Douglas FS,RRU Christopher Douglas FS,STN32,FSA,RRU,RRU,Riverside,CITY,A,P, 78111 Ave 52,La Quinta, 92253,760-564-4351,33.67241125,-116.30113122
-12957217.4159,4004251.4655,213,Active,Roy Wilson FS 35,STN_35,STN35,FSA,RRU,RRU,Riverside,COUNTY,A,P,31920 Roberts Rd,Thousand Palms,92276,760-343-3321,33.81696133,-116.39666444
-13065558.9145,4007226.5149,214,Active,STN04 Lake Mathews FS,RRU LAKE MATHEWS FS,STN04,FSA,RRU,RRU,Riverside,COUNTY,A,P, 17650 Cojalco Rd,Perris, 92570,951780-8241,33.83916242,-117.36991269
-12749421.7944,4010188.8577,215,Active,STN46 Riverbend FS,RRU RIVERBEND FS,STN46,EQF,RRU,RRU,Riverside,COUNTY,A,V,Hcr 20,Blythe,92225,760-922-7051,33.86126275,-114.53000462
-13064072.8187,3976530.7234,216,Decommissioned,STN74 Rancho Capistrano FS,RRU RANCHO CAPISTRANO FS,STN74,FSA,RRU,RRU,Riverside,COUNTY,A,V,35420 Calle Grande,Lake Elsinore,92530,951-674-3571,33.60982099,-117.35656286
-13038874.7309,4005278.136,217,Active,STN03 Nuview FS,RRU NUVIEW FS,STN03,FSA,RRU,RRU,Riverside,COUNTY,A,P,30515 10Th St,Nuevo, 92567,951-928-3718,33.82462346,-117.13020458
-13049775.5523,4021066.4971,218,Active,STN02 Sunnymead FS,RRU SUNNYMEAD FS,STN02,FSA,RRU,RRU,Riverside,CITY,A,P,24935 Hemloock,Moreno Valley,92557,951-242-3101,33.94236621,-117.22812833
-13051131.9825,3988819.8825,219,Active,STN05 Quail Valley FS,RRU QUAIL VALLEY FS,STN05,FSA,RRU,RRU,Riverside,COUNTY,A,P,28971 Goetz Rd,Menifee, 92587,951-244-6462,33.70171211,-117.24031335
-13054998.6861,4019704.7407,220,Active,STN06 Towngate FS,RRU Towngate FS,STN06,FSA,RRU,RRU,Riverside,CITY,A,P,22250 Eucalyptus Ave,Moreno Valley, 92553,951-653-3030,33.93221723,-117.27504854
-13045678.8174,3990696.5173,221,Active,STN07 Sun City FS,RRU SUN CITY FS,STN07,FSA,RRU,RRU,Riverside,COUNTY,A,P,27860 Bradley Rd,Menifee,92586,951-679-3414,33.71573585,-117.19132673
-13065932.3152,4012633.755,222,Active,STN08 Woodcrest FS,RRU WOODCREST FS,STN08,FSA,RRU,RRU,Riverside,COUNTY,A,P,16533 Trisha Way,Woodcrest, 92504,951-780-8620,33.8794987,-117.373267
-13055893.6568,3996937.1264,223,Active,STN09 Goodmeadow FS,RRU GOODMEADOW FS,STN09,FSA,RRU,RRU,Riverside,COUNTY,A,P,21565 Steele Peak Rd,Good Hope,92570,951-657-1925,33.76235427,-117.2830882
-13061383.0832,3984459.9556,224,Active,STN10 Elsinore FS,RRU ELSINORE FS,STN10,FSAB,RRU,RRU,Riverside,STATE,A,P,410 W Grahmam Ave,Lake Elsinore,92530,951-674-216,33.66912237,-117.33240055
-13063182.4552,3980677.1567,225,Active,STN11 Lakeland Village FS,RRU LAKELAND VILLAGE FS,STN11,FSA,RRU,RRU,Riverside,COUNTY,A,P,33020 Maiden Lane,Lakeland Village, 92530,951-678-2161,33.64083656,-117.34856459
-13082868.912,4011941.7984,226,Active,STN13 Home Gardens FS,RRU HOME GARDENS FS,STN13,FSA,RRU,RRU,Riverside,COUNTY,A,P, 3777 Neece St,Home Gardens, 92879,951-737-3840,33.874338,-117.52541104
-13086902.4343,4015858.4371,227,Active,STN14 Corona FS,RRU CORONA FS,STN14,FSB,RRU,RRU,Riverside,STATE,A,P, 1511 Hamner Ave,Norco, 92860,951-737-5541,33.90354474,-117.56164478
-13078531.445,4025486.3238,228,Active,STN16 Pedley FS,RRU PEDLEY FS,STN16,FSA,RRU,RRU,Riverside,COUNTY,A,P,9270Limonite Ave,Pedley, 92509,951-685-6382,33.97529825,-117.48644691
-13081229.0448,4030690.2095,229,Active,STN17 Glen Avon FS,RRU GLEN AVON FS,STN17,FSA,RRU,RRU,Riverside,COUNTY,A,P,10400 San Sevaine Way,Glen Avon, 91752,951-685-5109,34.01405595,-117.51067986
-13060117.6091,4030956.6049,230,Active,STN19 Highgrove FS,RRU HIGHGROVE FS,STN19,FSA,RRU,RRU,Riverside,COUNTY,A,P, 469 Center St,Highgrove, 92507,951-686-5260,34.01603953,-117.32103261
-13030913.6407,4029273.6239,231,Decommissioned,STN21 Calimesa FS,RRU CALIMESA FS,STN21,FSA,RRU,RRU,Riverside,CITY,A,P, 906 Park Ave,Calimesa,92320,909-795-1010,34.00350717,-117.0586889
-13021506.5392,4025477.1856,232,Active,STN22 Cherry Valley FS,RRU CHERRY VALLEY FS,STN22,FSA,RRU,RRU,Riverside,COUNTY,A,P, 10055 Avenida Mira Villa,Beaumont, 92223,951-845-4863,33.97523015,-116.97418346
-12995161.0902,3996768.6367,233,Active,STN23 Pine Cove FS,RRU PINE COVE FS,STN23,FSAB,RRU,RRU,Riverside,COUNTY,A,P,24919 Marion Ridge Rd,Pine Cove, 92549,951-659-2732,33.76109593,-116.73751827
-13000128.5719,4016520.42,234,Active,STN24 Cabazon FS,RRU CABAZON FS,STN24,FSA,RRU,RRU,Riverside,COUNTY,A,P,14580 Broadway,Cabazon, 92230,951-849-2316,33.90848018,-116.78214192
-13019842.6503,4000230.3262,235,Active,STN25 San Jacinto FS,RRU SAN JACINTO FS,STN25,FSAB,RRU,RRU,Riverside,STATE,A,P,132 So San Jacinto,San Jacinto,92583,951-654-7912,33.7869448,-116.9592365
-13016847.6148,3994574.7009,236,Active,STN26 Little Lake FS,RRU LITTLE LAKE FS,STN26,FSA,RRU,RRU,Riverside,COUNTY,A,P,25954 Stanford St,Hemet,92544,951-658-5200,33.74470951,-116.93233163
-13086566.0887,4023365.9968,237,Active,STN27 Eastvale FS,RRU EASTVALE FS,STN27,FSA,RRU,RRU,Riverside,COUNTY,A,P, 6709 Cedar Creek Rd,Eastvale,92880,951-898-3713,33.95950134,-117.55862334
-13017485.0194,3975867.9635,238,Active,STN28 Sage FS,RRU SAGE FS,STN28,FSA,RRU,RRU,Riverside,STATE,A,P, 35655 Sage Rd,Hemet, 92544,951-767-0118,33.60486245,-116.93805754
-12988123.794,3969258.1107,239,Active,STN29 Anza FS,RRU ANZA FS,STN29,FSAB,RRU,RRU,Riverside,STATE,A,P,56560 Hwy  371,Anza,92539,951-763-5611,33.55539443,-116.67430116
-12962935.6484,3973241.8293,240,Active,STN30 Pinyon FS,RRU PINYON FS,STN30,FSA,RRU,RRU,Riverside,COUNTY,A,P,70080 Hwy 74,Anza,92561,951-349-3209,33.58521188,-116.4480322
-12957361.2653,3992173.3276,241,Active,STN33 Palm Desert FS,RRU PALM DESERT FS,STN33,FSA,RRU,RRU,Riverside,CITY,A,P,44400 Town Center Way,Palm Desert,92260,760-346-0508,33.72677012,-116.39795666
-13034476.7078,3989012.9111,242,Active,STN34 Winchester FS,RRU WINCHESTER FS,STN34,FSA,RRU,RRU,Riverside,COUNTY,A,P,32655 Haddock St,Winchester,92596,951-926-6430,33.70315468,-117.09069647
-12975745.9251,4024034.9489,243,Active,STN36 Desert Hot Springs Skyborne FS,RRU DESERT HOT SPRINGS SKYBORNE FS,STN36,FSA,RRU,RRU,Riverside,COUNTY,A,P,11535 Karen Ave #A,Desert Hot Springs, 92240,760-251-6948,33.96448545,-116.56310887
-12969897.6417,4023674.5148,244,Active,STN37 Desert Hot Springs FS,RRU DESERT HOT SPRINGS FS,STN37,FSA,RRU,RRU,Riverside,CITY,A,P,65958 Pierson Blvd,Desert Hot Springs, 92240,760-329-5123,33.96179999,-116.51057285
-13070012.127,4028654.1934,245,Active,STN38 Rubidoux FS,RRU RUBIDOUX FS,STN38,FSA,RRU,RRU,Riverside,FIRE DISTRICT,A,P, 5721 Mission Blvd,Belltown,92509,951-683-4561,33.99889413,-117.40991657
-12931332.8778,3980086.7359,246,Active,STN39 Thermal FS,RRU THERMAL FS,STN39,FSA,RRU,RRU,Riverside,COUNTY,A,P,56925 Vic Higgins St,Thermal, 92274,760-399-5303,33.63642079,-116.16413968
-12921665.201,3971507.2257,247,Active,STN40 Mecca FS,RRU MECCA FS,STN40,FSA,RRU,RRU,Riverside,COUNTY,A,P,91100 4Th St,Mecca,92254,760-396-2173,33.57222991,-116.07729346
-12906156.0318,3964725.6762,248,Active,STN41 North Shore FS,RRU NORTH SHORE FS,STN41,FSA,RRU,RRU,Riverside,COUNTY,A,P,99065 Corvina Rd,Mecca, 92254,760-393-3073,33.52145735,-115.93797223
-12925645.6601,3960842.4697,249,Decommissioned,STN42 Oasis FS,RRU OASIS FS,STN42,FSA,RRU,RRU,Riverside,COUNTY,A,P,76800 Hwy 86,Thermal,92274,760-397-4173,33.49237088,-116.11305054
-12756989.8934,3977059.3595,250,Active,STN43 Blythe FS,RRU BLYTHE FS,STN43,FSA,RRU,RRU,Riverside,COUNTY,A,P,140 W Bernard St,Blythe, 92225,760-921-7822,33.61377569,-114.59799001
-12763391.1599,3965374.8654,251,Active,STN44 Ripley FS,RRU RIPLEY FS,STN44,FSA,RRU,RRU,Riverside,COUNTY,A,P,13950 Broadway Ave,Ripley,92225,760-921-7826,33.52631896,-114.65549356
-12770012.9211,3976546.3797,252,Active,STN45 Blythe Air Base FS,RRU BLYTHE AIR BASE FS,STN45,FSA,RRU,RRU,Riverside,COUNTY,A,P,17280 Hobson Way,Blythe,92225,760-921-7825,33.60993798,-114.71497785
-13052413.7993,4024460.6365,253,Active,STN48 Sunnymead Ranch FS,RRU SUNNYMEAD RANCH FS,STN48,FSA,RRU,RRU,Riverside,CITY,A,P,10511 Village Rd,Moreno Valley,92557,951-924-6825,33.96765701,-117.25182811
-12845422.616,3993663.0864,254,Active,STN49 Lake Tamarisk FS,RRU LAKE TAMARISK FS,STN49,FSA,RRU,RRU,Riverside,COUNTY,A,P,43880 Lake Tamarask,Desert Center,92239,760-227-3253,33.73789969,-115.39239467
-12960983.3087,3995655.0401,255,Active,STN50 South Rancho Mirage FS,RRU SOUTH RANCHO MIRAGE FS,STN50,FSA,RRU,RRU,Riverside,CITY,A,P,70801 Hwy 111,Rancho Mirage,92270,760-328-9877,33.75277889,-116.43049403
-13070400.5896,3982017.1299,256,Active,STN51 El Cariso FS,RRU EL CARISO FS,STN51,FSA,RRU,RRU,Riverside,COUNTY,A,P,325-353 Ortega Hwy,El Cariso,92530,951-678-6070,33.65085725,-117.41340619
-13014515.0873,3959418.3765,257,Decommissioned,STN52 Cottonwood FS,RRU COTTONWOOD FS,STN52,FSA,RRU,RRU,Riverside,COUNTY,A,V,44222 Sage Rd,Aguanaga, 92536,951-767-9610,33.48170156,-116.91137818
-12982948.2675,3977319.9795,258,Active,STN53 Garner Valley FS,RRU GARNER VALLEY FS,STN53,FSAB,RRU,RRU,Riverside,COUNTY,C,P,59200 Morris Ranch Road,Mountain Center, 92561,951-659-5353,33.61572549,-116.62780862
-13038565.0033,3994954.977,259,Active,STN54 Homeland FS,RRU HOMELAND FS,STN54,FSA,RRU,RRU,Riverside,COUNTY,A,P,25730 Sultanas Rd,Homeland,92548,951-926-2433,33.74755001,-117.12742225
-12950729.4278,3991682.0306,260,Active,STN55 Indian Wells FS,RRU INDIAN WELLS FS,STN55,FSA,RRU,RRU,Riverside,CITY,A,P,44900 El Dorado Dr,Indian Wells,92210,760-568-5252,33.72309944,-116.33838186
-12956444.629,4017633.9114,261,Active,STN56 Sky Valley FS,RRU SKY VALLEY FS,STN56,FSA,RRU,RRU,Riverside,COUNTY,A,P,72985 Dillon Rd,Desert Hot Springs,92241,760-329-1700,33.91678126,-116.38972238
-13043716.1317,4020444.2536,262,Active,STN58 Moreno FS,RRU MORENO FS,STN58,FSA,RRU,RRU,Riverside,CITY,A,P,28040 Eucalyptus Ave,Moreno Valley,92555,951-924-6860,33.93772886,-117.17369563
-13056331.6877,4006280.635,263,Active,STN59 Mead Valley FS,RRU MEAD VALLEY FS,STN59,FSA,RRU,RRU,Riverside,COUNTY,A,P,21510 Pinewood St,Mead Valley,92570,951-657-6711,33.8321045,-117.2870231
-13055372.4571,3975779.2461,264,Active,STN61 Wildomar FS,RRU WILDOMAR FS,STN61,FSA,RRU,RRU,Riverside,COUNTY,A,P,32637 Gruwell St,Wildomar,92595,951-678-1661,33.6041987,-117.27840618
-13076870.4039,3969031.796,265,Decommissioned,STN62 Rancho Carrillo FS,RRU RANCHO CARRILLO FS,STN62,FSA,RRU,RRU,Riverside,COUNTY,A,V,Lot # 51 Verdugo Rd,San Juan Capistrano,92693,949-728-0600,33.55370023,-117.47152552
-13008919.7192,4007831.2801,266,Active,STN63 Poppet Flats FS,RRU POPPET FLATS FS,STN63,FSA,RRU,RRU,Riverside,COUNTY,A,P,49575 Orchard,Banning,92220,951-849-2100,33.84367469,-116.86111414
-13075261.59,3995546.848,267,Active,STN64 Sycamore Creek FS,RRU SYCAMORE CREEK FS,STN64,FSA,RRU,RRU,Riverside,COUNTY,A,P,25310 Campbell Ranch Rd,Glen Ivy Hot Springs,92883,951-277-1182,33.75197086,-117.4570733
-13050583.9348,4015626.3741,268,Active,STN65 Kennedy Park FS,RRU KENNEDY PARK FS,STN65,FSA,RRU,RRU,Riverside,CITY,A,P,15111 Indian Ave,Moreno Valley,92553,951-934-3253,33.90181448,-117.23539015
-13021343.5365,4019399.06,269,Active,STN66 Beaumont City FS,RRU BEAUMONT CITY FS,STN66,FSA,RRU,RRU,Riverside,CITY,A,P,628 Maple Ave,Beaumont,92223,951-845-3718,33.92993885,-116.97271919
-12956151.0682,3988011.1836,270,Active,STN67 Mesa View FS,RRU MESA VIEW FS,STN67,FSA,RRU,RRU,Riverside,CITY,A,P,73200 Mesa View Dr,Palm Desert,92260,760-340-1120,33.69566811,-116.38708528
-13047231.2808,3981778.4534,271,Active,STN68 Menifee FS,RRU MENIFEE FS,STN68,FSA,RRU,RRU,Riverside,COUNTY,A,P,26020 Wickerd Rd,Menifee,92584,951-679-5163,33.64907244,-117.20527275
-12958711.5832,4000203.2892,272,Active,STN69 Rancho Mirage North FS,RRU RANCHO MIRAGE NORTH FS,STN69,FSA,RRU,RRU,Riverside,CITY,A,P,71751 Gerald Ford Dr,Rancho Mirage,92270,760-321-9399,33.78674292,-116.41008678
-12941121.7909,3982707.3013,273,Active,STN70 La Quinta South FS,RRU LA QUINTA SOUTH FS,STN70,FSA,RRU,RRU,Riverside,CITY,A,P,54001 Madison St,La Quinta,92253,760-564-2122,33.65601803,-116.25207498
-12954702.8755,3996310.5366,274,Active,STN71 Palm Desert North FS,RRU PALM DESERT NORTH FS,STN71,FSA,RRU,RRU,Riverside,CITY,A,P,73995 Country Club Dr,Palm Desert,92260,760-346-3335,33.75767463,-116.37407594
-13012535.9516,3996476.6807,275,Active,STN72 Valle Vista FS,RRU VALLE VISTA FS,STN72,FSA,RRU,RRU,Riverside,COUNTY,A,P,25175 Fairview Ave,Hemet,92544,951-927-1241,33.75891551,-116.8935993
-13042981.2037,3963948.8127,276,Active,STN73 Rancho California FS,RRU RANCHO CALIFORNIA FS,STN73,FSA,RRU,RRU,Riverside,CITY,A,P,27415 Enterprise Circle West,Temecula,92590,951-699-0351,33.51563924,-117.16709366
-13041411.4809,3986786.4104,277,Active,STN76 Menifee Lakes FS,RRU MENIFEE LAKES FS,STN76,FSA,RRU,RRU,Riverside,CITY,A,P,29950 Menifee Rd,Menifee,92584,951-679-2241,33.68651377,-117.1529926
-13000934.3485,3963181.5128,278,Active,STN77 Lake Riverside FS,RRU LAKE RIVERSIDE FS,STN77,FSA,RRU,RRU,Riverside,COUNTY,A,P,41610 Lakeshore Blvd,Aguagana,92536,951-763-0667,33.50989228,-116.78938033
-13025649.9804,4000226.1797,279,Active,STN78 West San Jacinto FS,RRU WEST SAN JACINTO FS,STN78,FSA,RRU,RRU,Riverside,CITY,A,P,2450 W Cottonwood Ave,San Jacinto,92583,951-654-7637,33.78691385,-117.01140463
-12932898.7352,3985661.5367,280,Active,STN79 Coachella FS,RRU COACHELLA FS,STN79,FSA,RRU,RRU,Riverside,CITY,A,P,1377 6Th St,Coachella,92236,760-398-8895,33.67810517,-116.17820602
-12941010.1943,3996341.1737,281,Active,STN80 Sun City-Shadow Hills FS,RRU SUN CITY-SHADOW HILLS FS,STN80,FSA,RRU,RRU,Riverside,CITY,A,P,81025 Ave 40,Indio,92203,760-347-1030,33.75790344,-116.2510725
-12946789.8606,3998465.6521,282,Active,STN81 North Bermuda Dunes FS,RRU NORTH BERMUDA DUNES FS,STN81,FSA,RRU,RRU,Riverside,COUNTY,A,P,37955 Washington St,Palm Desert,92260,760-772-4391,33.7737687,-116.30299212
-13075342.9183,4010851.245,283,Active,STN82 Lake Hills FS,RRU LAKE HILLS FS,STN82,FSA,RRU,RRU,Riverside,COUNTY,A,P,17452 Lake Pointe Dr,Home Gardens,92503,951-347-1030,33.86620386,-117.45780389
-13038929.2772,3972131.7431,284,Active,STN83 French Valley FS,RRU FRENCH VALLEY FS,STN83,FSA,RRU,RRU,Riverside,COUNTY,A,P,37500 Sky Canyon Dr,Murrieta,92562,951-696-0962,33.57690414,-117.13069458
-13037935.4305,3961486.3421,285,Active,STN84 Parkview FS,RRU PARKVIEW FS,STN84,FSA,RRU,RRU,Riverside,CITY,A,P,30650 Pauba Rd,Temecula,92592,951-693-0683,33.49719443,-117.12176671
-13068981.906,3986908.4223,286,Active,STN85 Mcvicker Park FS,RRU MCVICKER PARK FS,STN85,FSA,RRU,RRU,Riverside,CITY,A,P,29405 Grand Ave,Lake Elsinore,92530,951-245-2185,33.68742579,-117.40066194
-12937106.9485,3989668.9105,287,Active,STN86 Indio FS,RRU INDIO FS,STN86,FSA,RRU,RRU,Riverside,,A,P,46990 Jackson St,Indio,92201,760-347-0726,33.70805697,-116.21600904
-12935204.2463,3993562.5895,288,Active,STN87 Terra Lago FS,RRU TERRA LAGO FS,STN87,FSA,RRU,RRU,Riverside,CITY,A,P,42900 Golf Center Parkway,Indio,92201,760-342-2774,33.73714899,-116.19891678
-12941081.2931,3989900.925,289,Active,STN88 West Indio FS,RRU WEST INDIO FS,STN88,FSA,RRU,RRU,Riverside,CITY,A,P,46621 Madison St,Indio,92201,760-342-4495,33.70979077,-116.25171119
-13010504.1488,4018993.5559,290,Active,STN89 Banning City FS,RRU BANNING CITY FS,STN89,FSA,RRU,RRU,Riverside,CITY,A,P,172 N Murray St,Banning,92220,951-922-3230,33.92691637,-116.87534731
-13048767.7153,4005003.9005,291,Active,STN90 North Perris FS,RRU NORTH PERRIS FS,STN90,FSA,RRU,RRU,Riverside,CITY,A,P,333 Placentia Ave,Perris,92570,951-657-4935,33.8225769,-117.21907478
-13047209.04,4013783.2311,292,Active,STN91 College Park FS,RRU COLLEGE PARK FS,STN91,FSA,RRU,RRU,Riverside,CITY,A,P,16110 Lasselle St,Moreno Valley,92553,951-924-2714,33.88807096,-117.20507296
-13036088.3358,3956692.6798,293,Active,STN92 Wolf Creek FS,RRU WOLF CREEK FS,STN92,FSA,RRU,RRU,Riverside,CITY,A,P,32211 Wolf Creek Dr,Temecula,92592,951-302-1497,33.46127686,-117.10517397
-12944995.5861,3991950.6133,294,Active,STN93 La Quinta North FS,RRU LA QUINTA NORTH FS,STN93,FSA,RRU,RRU,Riverside,CITY,A,P,44555 Adams St,La Quinta,92253,760-345-7663,33.72510614,-116.28687388
-13054008.4901,3983776.2507,295,Active,STN94 Canyon Hills FS,RRU CANYON HILLS FS,STN94,FSA,RRU,RRU,Riverside,CITY,A,P,22770 Rail Road Canyon Rd,Lake Elsinore,92570,951-246-2293,33.66401067,-117.26615346
-13024359.8699,3969398.3385,296,Active,STN96 Glen Oaks FS,RRU GLEN OAKS FS,STN96,FSA,RRU,RRU,Riverside,CITY,A,P,3770 Glen Oaks Rd,Temecula,92592,951-302-7502,33.5564442,-116.99981537
-13060238.1806,3988723.6267,297,Active,STN97 Rosetta Can FS,RRU ROSETTA CANYON,STN97,FSA,RRU,RRU,Riverside,CITY,A,P,,Lake Elsinore,,,33.70099276,-117.32211572
-13053795.6592,3970561.7673,298,Active,STN75 Bear Creek FS,RRU BEAR CREEK FS,STN75,FSA,RRU,RRU,Riverside,COUNTY,A,P,38900 Clinton Kieth Rd,Murrieta,92562,951-698-8338,33.56515324,-117.26424156
-13100989.3309,4027492.9402,299,Active,Chino Hills FS,BDU Chino Hills FS,Prado,FSB,BDU,BDU,San Bernardino,STATE,B,P,14467 Central Ave,Chino,91710,909-597-6665,33.99024531,-117.68818953
-13028247.3688,4035041.7026,300,Active,Yucaipa FS,BDU Yucaipa FS,,FSAB,BDU,BDU,San Bernardino,STATE,C,P,11416 Bryant Street,Yucaipa,92399,909-797-1000,34.04645155,-117.03473737
-12958651.1085,4045412.0257,301,Active,Yucca Valley FS,BDU Yucca Valley FS,,FSB,BDU,BDU,San Bernardino,STATE,B,P,7105 Airway Dr,Yucca Valley,92284,760-365-4411,34.12360574,-116.40954352
-13069333.6756,4058559.9827,302,Active,Devore FS,BDU Devore FS,,FSB,BDU,BDU,San Bernardino,STATE,B,P,18365 Cajon Blvd,San Bernardino,92407,909-887-3630,34.22132423,-117.40382194
-13085035.7309,4086066.4917,303,Active,Phelan FS,BDU Phelan FS,,FSB,BDU,BDU,San Bernardino,STATE,B,P,9600 Centola Rd,Phelan,92371,760-868-3555,34.42539211,-117.5448759
-13017433.4632,4088561.6406,304,Active,Lucerne Valley FS,BDU Lucerne Valley FS,,FSB,BDU,BDU,San Bernardino,STATE,B,P,"33271 Old Womans Springs Road,",Lucerne Valley,92356,760-248-7525,34.44387876,-116.9375944
-13157445.8242,4411184.0451,305,Active,Independence FS,BDU Independence FS,,FSB,BDU,BDU,Inyo,STATE,B,P,250 E. Park Street,Independence,93526,760-878-2258,36.79940598,-118.19534684
-13196776.4371,4494102.3609,306,Active,Bishop FS,BDU Bishop FS,Owens Valley FFS.,FSB,BDU,BDU,Inyo,STATE,B,P,2784 S Round Valley Rd,Bishop,93514,760-387-2179,37.3935226,-118.54865975
-13510029.796,4417263.7336,307,Active,Hollister FS,BEU Hollister FS,#50,FSB,BEU,BEU,San Benito,STATE,B,P,1979 Fairview Road,Hollister,95023-9724,831-637-4474,36.8431258,-121.36266255
-13472904.7389,4389559.3091,308,Active,Antelope FS,BEU Antelope FS,#51,FSB,BEU,BEU,San Benito,STATE,B,P,20400 Panoche Road,Paicines,95043-9706,831-628-3269,36.6436984,-121.02916248
-13490352.4937,4379518.027,309,Active,Bear Valley FS,BEU Bear Valley FS,#60,FSB,BEU,BEU,San Benito,STATE,B,P,25820 Airline Hwy,Paicinas,95043-9702,831-389-4591,36.57128943,-121.18589833
-13512093.7096,4364302.3301,310,Active,Gonzales FS,BEU Gonzales FS,#33,FSB,BEU,BEU,Monterey,STATE,B,P,31801 Mccoy Road,Soledad,93960,831-678-3341,36.4614376,-121.381203
-13546012.0076,4362207.9322,311,Active,Tularcitos FS,BEU Tularcitos FS,#23,FSB,BEU,BEU,Monterey,STATE,B,P,16650 Cachagua Rd,Carmel Valley,93923,831-659-2626,36.44630461,-121.68589625
-13462400.7449,4354437.7574,312,Active,Beaver Dam FS,BEU Beaver Dam FS,#61,FSB,BEU,BEU,San Benito,STATE,B,P,5300 Hernandez-Coalinga Road,Paicines,95023-9705,831-385-5722,36.39013563,-120.9348035
-13484209.4547,4328973.5533,313,Active,King City FS,BEU King City FS,#30,FSB,BEU,BEU,Monterey,STATE,B,P,743 Reich Street,King City,93930-3434,831-385-6437,36.20577585,-121.13071447
-13481575.1887,4291994.3669,314,Active,Lockwood FS,BEU Lockwood FS,#42,FSB,BEU,BEU,Monterey,STATE,B,P,67820 Jolon Road,Lockwood,93932-0182,831-385-4443,35.93727325,-121.10705046
-13406580.4984,4286726.3026,315,Active,Parkfield FS,BEU Parkfield FS,#41,FSB,BEU,BEU,Monterey,STATE,B,P,70578 Coalinga-Parkfield Road,San Miguel,93451-9605,805-463-2330,35.89894771,-120.43336169
-13447747.9495,4281895.8827,316,Active,Bradley FS,BEU Bradley FS,#40,FSB,BEU,BEU,Monterey,STATE,B,P,65789 Bradley Road,Bradley,93426-0028,805-472-2244,35.86378982,-120.8031752
-13532985.6731,4797093.1354,317,Active,Oroville FS,BTU Oroville FS,Station 63,FSAB,BTC,BTU,Butte,STATE,C,P,176 Nelson Ave,Oroville,95965,530-538-7987,39.52456779,-121.5688787
-13505320.4706,4792798.4977,318,Active,Robinson Mill FS,BTU Robinson Mill FS,Station 54,FSB,BTU,BTU,Butte,STATE,B,P,10 Robinson Mill Rd,Oroville,95966,530-589-3103,39.49480312,-121.32035796
-13497473.9378,4807041.0856,319,Active,Feather Falls FS,BTU Feather Falls FS,Station 51,FSB,BTU,BTU,Butte,STATE,B,P,2845 Lumpkin Rd,Feather Falls,95940,530-589-3211,39.59346458,-121.24987135
-13517569.5082,4814083.0266,320,Active,Harts Mill FS,BTU Harts Mill FS,Station 62,FSB,BTU,BTU,Butte,STATE,B,P,2 Berry Creek Rd,Berry Creek,95916,530-589-2555,39.64219381,-121.43039293
-13524843.2804,4828109.182,321,Active,Jarbo Gap FS,BTU Jarbo Gap FS,Station 36,FSB,BTU,BTU,Butte,STATE,B,P,11972 Hwy 70,Oroville,95965,530-538-7199,39.73915052,-121.49573434
-13535388.1873,4834811.4912,322,Active,Paradise FS,BTU Paradise FS,Station 35,FSB,BTU,BTU,Butte,STATE,B,P,1464 Forest Service Rd,Paradise,95969,530-872-6318,39.78543258,-121.59046085
-13528449.9652,4852058.3573,323,Active,Stirling City FS,BTU Stirling City FS,Station 13,FSB,BTU,BTU,Butte,STATE,B,P,7882 Quartz St,Stirling City,95978,530-873-2758,39.90438585,-121.52813374
-13541686.6496,4855423.6174,324,Active,Forest Ranch FS,BTU Forest Ranch FS,Station 23,FSB,BTU,BTU,Butte,STATE,B,P,5362 Platte Mountain Rd,Forest Ranch,95942,530-895-6503,39.92757235,-121.6470409
-13551154.5562,4854864.2411,325,Active,Cohasset FS,BTU Cohasset FS,Station 22,FSB,BTU,BTU,Butte,STATE,B,P,9868 Cohasset Rd,Cohasset,95973,530-895-6504,39.92371882,-121.73209255
-13532116.5648,4877380.0008,326,Active,Butte Meadows FS,BTU Butte Meadows FS,Station 11,FSB,BTU,BTU,Butte,STATE,B,P,7288 Humboldt Rd,Butte Meadows,95942,530-873-3459,40.07865805,-121.56107137
-13618699.8929,4510731.1821,327,Active,Belmont FS,CZU Belmont FS,Station 17,FSAB,CZU,CZU,San Mateo,COUNTY,C,P,320 Paul Scannell Dr,San Mateo,94402,650-573-3842,37.51210817,-122.33886264
-13610638.8953,4493260.6203,328,Active,Sky Londa FS,CZU Sky Londa FS,Station 58,FSAB,CZU,CZU,San Mateo,COUNTY,C,P,17290 Skyline Blvd,Woodside,94062,650-851-1860,37.38751515,-122.26644946
-13625161.9444,4473957.3756,329,Active,Pescadero FS,CZU Pescadero FS,Station 59,FSAB,CZU,CZU,San Mateo,COUNTY,C,P,"1200 Pescadero Rd, P.O. Box 27",Pescadero,94060,650-879-0121,37.24961102,-122.39691223
-13606005.1349,4447113.9598,330,Active,Big Creek FS,CZU Big Creek FS,Station 33,FSB,CZU,CZU,Santa Cruz,STATE,B,P,240 Swanton Road,Davenport,95017,831-426-1664,37.05741897,-122.22482369
-13570532.8973,4454215.0043,331,Active,Burrell FS,CZU Burrell FS,Station 47,FSB,CZU,CZU,Santa Cruz,STATE,B,P,25050 Highland Way,Los Gatos,95030,408-353-1022,37.10830814,-121.90617115
-13559302.9061,4437888.5392,332,Active,Corralitos FS,CZU Corralitos FS,Station 49,FSB,CZU,CZU,Santa Cruz,STATE,B,P,120 Eureka Canyon Rd,Watsonville,95076,831-724-2446,36.99125454,-121.80529043
-13598610.3031,4459475.9391,333,Active,Jamison Creek FS,CZU Jamison Creek FS,Station 23,FSB,CZU,CZU,Santa Cruz,FIRE DISTRICT,B,P,16115 Jamison Creek Rd,Boulder Creek,95008,831-338-4422,37.14598828,-122.15839478
-13595667.4726,4475536.6604,334,Active,Saratoga Summit FS,CZU Saratoga Summit FS,Station 21,FSB,CZU,CZU,Santa Clara,STATE,B,P,12900 Skyline Blvd,Los Gatos,95030,408-867-3625,37.26090306,-122.13195888
-13574051.7051,4445630.7351,335,Temporarily Decommissioned,Soquel FS,CZU Soquel FS,Station 43,FSB,CZU,CZU,Santa Cruz,STATE,B,P,4750 Old San Jose Road,Soquel,95073,831-475-3234,37.0467852,-121.93778114
-13594574.1862,4447086.9519,336,Active,Fall Creek FS,CZU Fall Creek FS,Station 31,FSB,CZU,CZU,Santa Cruz,COUNTY,B,P,7272 Empire Grade Road,Bonny Doon,95060,831-426-3131,37.05722535,-122.12213773
-13388761.4182,4319578.4566,337,Active,Coalinga FS,FKU Coalinga FS,,FSB,FKU,FKU,Fresno,STATE,B,P,25600 West Jayne,Coalinga,93210,559-935-0756,36.1376457,-120.27329017
-13266789.4691,4394898.5052,338,Active,Sand Creek FS,FKU Sand Creek FS,,FSB,FKU,FKU,Fresno,STATE,B,P,41510  Sand Creek Rd,Squaw Valley,93675,559-338-2312,36.68217222,-119.17759751
-13308925.7794,4401898.1293,339,Active,Sanger FS,FKU Sanger FS,Fresno-Kings Ranger HQ,FSAB,FKU,FKU,Fresno,STATE,C,P,210 South Academy Ave,Sanger,93657,559-493-4384,36.732582,-119.55611443
-13271781.3793,4404237.1958,340,Active,Squaw Valley FS,FKU Squaw Valley FS,,FSB,FKU,FKU,Fresno,STATE,B,P,32515 E Kings Canyon Rd,Squaw Valley,93675,559-332-2325,36.74942005,-119.22244061
-13289536.6503,4413048.1898,341,Active,Piedra FS,FKU Piedra FS,,FSB,FKU,FKU,Fresno,STATE,B,P,6185 Elwood Rd,Sanger,93957,559-787-2444,36.81281396,-119.38193892
-13296769.4873,4433561.5662,342,Active,Blasingame FS,FKU Blasingame FS,,FSB,FKU,FKU,Fresno,STATE,B,P,23087 E Tollhouse Road,Clovis,93619,559-299-6561,36.96020163,-119.4469126
-13325713.1329,4438094.0811,343,Active,Millerton FS,FKU Millerton FS,,FSB,FKU,FKU,Fresno,STATE,B,P,4091 E Millerton Rd,Friant,93626,559-822-2389,36.99272916,-119.70691779
-13310219.7807,4441124.4156,344,Active,Hurley FS,FKU Hurley FS,,FSB,FKU,FKU,Fresno,STATE,B,P,25627 N Auberry Rd,Clovis,93619,559-855-2244,37.01446854,-119.56773864
-13281657.6475,4453846.4343,345,Active,Shaver Lake FS,FKU Shaver Lake FS,,FSB,FKU,FKU,Fresno,STATE,B,P,41640 Dinkey Creek Rd,Shaver Lake,93664,559-841-3360,37.10566747,-119.31116063
-13799378.4799,4874178.3648,346,Active,Thorn FS,HUU Thorn FS,,FSB,HUU,HUU,Humboldt,STATE,B,P,13298 Briceland-Thorn Rd,Whitethorn,95589,707-986-7553,40.05664805,-123.961926
-13780325.4684,4881374.089,347,Active,Garberville FS,HUU Garberville FS,,FSB,HUU,HUU,Humboldt,STATE,B,P,324 Alderpoint Road,Garberville,95440,707-926-2645,40.1061063,-123.79076988
-13758073.387,4893115.1825,348,Active,Alderpoint FS,HUU Alderpoint FS,,FSB,HUU,HUU,Humboldt,STATE,B,P,19545 Alderpoint Rd,Alderpoint,95511,707-926-5353,40.18672901,-123.59087604
-13818409.3501,4900601.8063,349,Active,Mattole FS,HUU Mattole FS,,FSB,HUU,HUU,Humboldt,STATE,B,P,44056 Mattole Rd,Petrolia,95558,707-629-3344,40.23808759,-124.13288321
-13795179.6393,4912791.6008,350,Active,Weott FS,HUU Weott FS,,FSB,HUU,HUU,Humboldt,STATE,B,P,370 Newton Road,Weott,95571,707-946-2215,40.32162674,-123.92420717
-13780648.4091,4934945.1934,351,Active,Bridgeville FS,HUU Bridgeville FS,,FSB,HUU,HUU,Humboldt,STATE,B,P,38737 Kneeland Road,Bridgeville,95526,707-777-3636,40.4731855,-123.79367091
-13820020.1456,4952425.7593,352,Active,Fortuna FS,HUU Fortuna FS,,FSB,HUU,HUU,Humboldt,STATE,B,P,118 S. Fortuna Blvd,Fortuna,95540-0425,707-726-1270,40.59222844,-124.14735324
-13819770.1259,5023594.9339,353,Active,Trinidad FS,HUU Trinidad FS,,FSB,HUU,HUU,Humboldt,STATE,B,P,923 Patrick'S Point Drive,Trinidad,95570,707-677-3638,41.07624426,-124.14510727
-13799070.4879,5045144.1975,354,Active,Elk Camp FS,HUU Elk Camp FS,,FSB,HUU,HUU,Humboldt,STATE,B,P,10001 Bald Hills Rd.,Orick,95555,707-499-2240,41.22201001,-123.95915926
-13802977.3989,5090090.9828,355,Active,Klamath FS,HUU Klamath FS,,FSB,HUU,HUU,Del Norte,STATE,B,P,180 Terwer Valley Road,Klamath,95548,707-482-7355,41.52500024,-123.99425564
-13825271.3324,5125828.5433,356,Active,Crescent City FS,HUU Crescent City FS,,FSB,HUU,HUU,Del Norte,STATE,B,P,1025 Highway 101 North,Crescent City,95531,707-464-5526,41.76490256,-124.19452545
-13485917.7192,5079033.4399,357,Active,Happy Camp FS,LMU Happy Camp FS,,FSB,LMU,LMU,Modoc,STATE,B,P,"County Road #84, P.O. Box 36",Bieber,96009,530-664-2850,41.45059103,-121.14606008
-13417881.1702,5085047.7368,358,Active,Alturas FS,LMU Alturas FS,,FSB,LMU,LMU,Modoc,STATE,B,P,702 East 8Th Street,Alturas,96101,530-233-2723,41.49107327,-120.53487736
-13484718.9167,5030288.018,359,Active,Bieber FS,LMU Bieber FS,,FSB,LMU,LMU,Lassen,STATE,B,P,"510 Bridge Street, P.O. Box 36",Bieber,96101,530-294-5251,41.12155275,-121.13529105
-13439137.0352,4978230.2411,360,Active,Grasshopper FS,LMU Grasshopper FS,,FSB,LMU,LMU,Lassen,STATE,B,P,515-350 Hwy 139,Susanville,96130,530-825-3144,40.76832487,-120.72582204
-13446915.3645,4944885.1629,361,Active,Eagle Lake FS,LMU Eagle Lake FS,,FSB,LMU,LMU,Lassen,STATE,B,P,490-105 Co Rd A-1,Susanville,96130,530-825-3176,40.54107638,-120.79569596
-13433650.423,4927738.082,362,Active,Susanville FS,LMU Susanville FS,,FSB,LMU,LMU,Lassen,STATE,B,P,697-345 Hwy 36,Susanville,96130,530-257-3778,40.42391687,-120.67653496
-13470669.6907,4909879.5448,363,Active,Westwood FS,LMU Westwood FS,,FSB,LMU,LMU,Lassen,STATE,B,P,3Rd St At Greenwood St,Westwood,96137,530-256-3203,40.30167896,-121.0090847
-13445212.3267,5055449.8546,364,Active,Deer Springs FS,LMU Deer Springs FS,,FSB,LMU,LMU,Modoc,STATE,B,P,Calpinesblvd @ Christopherln,Alturas,96101,530-249-7438,41.29160575,-120.78039731
-13660209.6659,4725068.7707,365,Active,Clearlake Oaks FS 40,LNU Clearlake Oaks FS,Station 40,FSB,LNU,LNU,Lake,STATE,B,P,140 Spring Rd,Clearlake Oaks,95423,707-998-3711,39.02420353,-122.71175127
-13666239.3911,4709112.3931,366,Active,Kelsey Cobb FS 34,LNU Kelsey Cobb FS,Station 34,FSB,LNU,LNU,Lake,STATE,B,P,8948 State Highway 175,Kelseyville,95451,707-279-4924,38.91255237,-122.76591721
-13650015.0506,4685684.0397,367,Active,Middletown FS 31,LNU Middletown FS,Station 31,FSB,LNU,LNU,Lake,STATE,B,P,"15522 Lake St., P.O. Box 428",Middletown,95461,707-987-3122,38.7483123,-122.62017148
-13606921.856,4655708.2624,368,Active,Spanish Flat FS 24,LNU Spanish Flat FS,Station 24,FSB,LNU,LNU,Napa,STATE,B,P,4454 Knoxville Rd,Napa,94558,707-966-2344,38.53799368,-122.23305873
-13637997.7996,4657103.2661,369,Active,St Helena FS 26,LNU St Helena FS,Sta. 26,FSAB,LNU,LNU,Napa,STATE,C,P,3535 Saint Helena Highway N,Calistoga,94515,707-967-1467,38.54749978,-122.51221868
-13627633.7523,4659183.6946,370,Active,Las Posadas FS 30,LNU Las Posadas FS,Station 30,FSB,LNU,LNU,Napa,STATE,B,P,755 Las Posadas Rd,Angwin,94508,707-965-9598,38.56303494,-122.41911686
-13610361.6181,4627323.1902,371,Active,Napa FS 25,LNU Napa FS,Station 25,FSAB,LNU,LNU,Napa,STATE,C,C,1820 Monticello Rd,Napa,94558,707-253-4940,38.33837849,-122.26395864
-13594464.6727,4626966.4937,372,Active,Gordon Valley FS 38,LNU Gordon Valley FS,Station 38,FSB,LNU,LNU,Napa,STATE,B,P,1345 Wooden Valley Cross Rd,Napa,94558,707-428-2050,38.33622364,-122.12115395
-13629440.1807,4748194.3491,373,Active,Leesville FS 36,LNU Leesville FS,Station 36,FSB,LNU,LNU,Colusa,STATE,B,P,2959 Bear Valley Rd,Williams,95987,530-473-2615,39.18537961,-122.43534428
-13620771.1632,4723382.721,374,Active,Wilbur Springs FS 35,LNU Wilbur Springs FS,Station 35,FSB,LNU,LNU,Colusa,STATE,B,P,1010 Hwy 16,Williams,95987,530-473-2630,39.01211491,-122.35746917
-13597022.3368,4684122.0926,375,Active,Brooks FS 37,LNU Brooks FS,Station 37,FSB,LNU,LNU,Yolo,STATE,B,P,"14023 Hwy 16, P.O. Box 86",Brooks,95606,530-796-3506,38.73744377,-122.14412984
-13701315.831,4652882.7352,376,Active,Cazadero FS 45,LNU Cazadero FS,Station 45,FSB,LNU,LNU,Sonoma,STATE,B,P,4600 Cazadero Hwy,Cazadero,95421,707-632-5278,38.51829671,-123.08101424
-13694251.2847,4691427.7856,377,Active,Cloverdale FS 49,LNU Cloverdale FS,Station 49,FSB,LNU,LNU,Sonoma,STATE,B,P,1001 South Cloverdale Blvd.,Cloverdale,95425,707-894-2306,38.78874962,-123.01755234
-13637859.9318,4631036.9693,378,Active,Glen Ellen FS 46,LNU Glen Ellen FS,Station 46,FSB,LNU,LNU,Sonoma,STATE,B,P,14000 Sonoma Hwy,Glen Ellen,95442,707-996-6900,38.36418409,-122.51098019
-13687420.9492,4651298.8696,379,Active,Hilton FS 43,LNU Hilton FS,Station 43,FSB,LNU,LNU,Sonoma,STATE,B,P,12604 River Road,Guerneville,95446,707-887-1770,38.50624431,-122.95619439
-13678148.2902,4672090.927,380,Active,Healdsburg FS 48,LNU Healdsburg FS,Station 48,FSB,LNU,LNU,Sonoma,STATE,B,P,17475 Redwood Hwy,Healdsburg,95448,707-433-2020,38.6534325,-122.87289668
-13685800.6025,4638269.461,381,Active,Occidental FS 42,LNU Occidental FS,Station 42,FSB,LNU,LNU,Sonoma,STATE,B,P,3100 Acreage Lane,Sebastopol,95472,707-874-3668,38.41548566,-122.94163857
-13655641.4517,4613555.0083,382,Active,Petaluma FS 47,LNU Petaluma FS,Station 47,FSB,LNU,LNU,Sonoma,STATE,B,P,655 Lorhman Lane,Petaluma,94952,707-762-6262,38.24118706,-122.67071431
-13665149.6513,4642362.9501,383,Active,Santa Rosa FS 41,LNU Santa Rosa FS,Station 41,FSB,LNU,LNU,Sonoma,STATE,B,P,2210 West College Ave,Santa Rosa,95401,707-576-2001,38.44416074,-122.75612792
-13610711.1177,4610555.3713,384,Active,Greenwood Ranch FS 27,LNU Greenwood Ranch FS,Station 27,FSAB,LNU,LNU,Napa,COUNTY,C,P,1555 Airport Rd,Napa,94558,707-253-6196,38.22006139,-122.26709825
-13772606.6234,4847972.1808,385,Active,Leggett FS,MEU Leggett FS,,FSB,MEU,MEU,Mendocino,STATE,B,P,"69310 N Hwy 101, Po Box 156",Leggett,95585,707-925-6414,39.87622192,-123.72143032
-13746424.2173,4822705.6413,386,Active,Laytonville FS,MEU Laytonville FS,,FSB,MEU,MEU,Mendocino,STATE,B,P,46101 N Hwy 101,Laytonville,95454,707-984-6777,39.70181448,-123.48622976
-13719862.8539,4837897.6084,387,Active,Covelo FS,MEU Covelo FS,,FSB,MEU,MEU,Mendocino,STATE,B,P,77251 Covelo Rd.,Covelo,95428,707-983-6499,39.8067331,-123.24762498
-13781958.1416,4786438.7298,388,Active,Fort Bragg FS,MEU Fort Bragg FS,,FSB,MEU,MEU,Mendocino,STATE,B,P,802 North Main Street,Fort Bragg,95437,707-964-5673,39.4507274,-123.80543644
-13775175.2705,4766778.3665,389,Active,Woodlands FS,MEU Woodlands FS,,FSB,MEU,MEU,Mendocino,STATE,B,P,41722 Little Lake Rd,Mendocino,95460,707-937-5765,39.31419424,-123.74450487
-13727921.4791,4771766.6593,390,Active,Howard Forest FS,MEU Howard Forest FS,,FSB,MEU,MEU,Mendocino,STATE,B,P,17501 N Hwy 101,Willits,95490,707-459-7413,39.34884653,-123.32001684
-13715694.4203,4748236.7894,391,Active,Ukiah FS,MEU Ukiah FS,,FSB,MEU,MEU,Mendocino,STATE,B,P,2690 N State Street,Ukiah,95482,707-462-7448,39.18520949,-123.2101793
-13770317.8535,4709525.2982,392,Active,Point Arena FS,MEU Point Arena FS,,FSB,MEU,MEU,Mendocino,STATE,B,P,"410 School Street, Po Box 134",Point Arena,95468,707-882-2151,38.91514844,-123.70086995
-13731426.5538,4719708.3052,393,Active,Boonville FS,MEU Boonville FS,,FSB,MEU,MEU,Mendocino,STATE,B,P,"16001 Hwy 128, Po box 464",Boonville,95415,707-895-3323,38.9862877,-123.35150346
-13705682.5876,4722085.4785,394,Active,Hopland FS,MEU Hopland FS,,FSB,MEU,MEU,Mendocino,STATE,B,P,"11000 S Hwy 101, Pobox 415",Hopland,95449,707-744-1111,39.00288452,-123.12024148
-13328181.9843,4491359.6842,395,Active,Ahwahnee FS,MMU AHWAHNEE,Ahwahnee,FSB,MMU,MMU,Madera,STATE,B,P,43033 Hwy 49 S,Ahwahnee,93601,559-683-4844,37.37394574,-119.72909586
-13325440.273,4474142.789,396,Active,Coarsegold FS,MMU COARSEGOLD,Coarsegold,FSB,MMU,MMU,Madera,STATE,B,P,34555 Hwy 41,Coarsegold,93614,559-683-4823,37.25093664,-119.70446665
-13310649.3899,4467415.5921,397,Active,Rancheria FS,MMU RANCHERIA,RANCH,FSB,MMU,MMU,Madera,STATE,B,P,53488 Road 200,O'Neals,93645,559-877-2322,37.20281834,-119.57159788
-13348060.6163,4467540.3258,398,Active,Raymond FS,MMU RAYMOND,Raymond,FSB,MMU,MMU,Madera,STATE,B,P,34951 Road 606,Raymond,93653,559-689-3332,37.20371084,-119.90766865
-13384919.4684,4510363.5265,399,Active,Hornitos FS,MMU HORNITOS,Hornitos,FSB,MMU,MMU,Mariposa,STATE,B,P,3004 Bear Valley Rd,Hornitos,95325,209-376-2323,37.50948819,-120.23877735
-13381037.605,4540457.6548,400,Active,Coulterville FS,MMU COULTERVILLE,Coulterville,FSB,MMU,MMU,Mariposa,STATE,B,P,10508 Hwy 49N,Coulterville,95311,209-878-3311,37.7236279,-120.20390598
-13372514.312,4496149.4523,401,Active,Catheys Valley FS,MMU CATHEYS VALLEY,Catheys Valley,FSB,MMU,MMU,Mariposa,STATE,B,P,2203 Hwy 140,Catheys Valley,95306,209-966-3413,37.4081313,-120.12733994
-13356789.4587,4509238.8044,402,Active,Mariposa FS,MMU MARIPOSA,Mariposa,FSB,MMU,MMU,Mariposa,STATE,B,P,5366 Hwy 49N,Mariposa,95338,209-966-3622,37.50147307,-119.98608118
-13334308.5618,4503888.1517,403,Active,Usona FS,MMU USONA,Usona,FSB,MMU,MMU,Mariposa,STATE,B,P,2629 Hwy 49 S,Mariposa,95338,209-742-7233,37.46333097,-119.78413184
-13475672.9777,4446858.11,404,Active,Los Banos FS,MMU LOS BANOS,Los Banos,FSB,MMU,MMU,Merced,STATE,B,P,31011 West Gonzaga Rd,Gustine,95322,209-826-4233,37.05558472,-121.05403
-13311671.6932,4481664.1126,405,Active,Bass Lake FS ,MMU BASS LAKE,Bass Lake,FSB,MMU,MMU,Madera,STATE,B,P,38333 Road 223,Oakhurst,93644,559-683-6700,37.30469879,-119.58078139
-12980848.7669,3842990.7365,406,Active,Potrero FS #31,MVU Potrero FS,Station #31,FSB,SDU,SDU,San Diego,STATE,B,P,"25130 Hwy 94, P.O. Box 92",Potrero,91963,619-478-5544,32.60499381,-116.60894848
-12965258.665,3846202.1725,407,Active,Campo FS #40,MVU Campo FS,Station #40,FSB,SDU,SDU,San Diego,STATE,B,P,31577 Highway 94,Campo,91906,619-478-5516,32.62929291,-116.46890021
-12999351.1413,3848007.6423,408,Active,Dulzura FS Station #30,MVU Dulzura FS,Station 30,FSB,SDU,SDU,San Diego,STATE,B,P,17304 Hwy 94,Dulzura,91917,619-468-3391,32.64295099,-116.77515814
-12998202.5728,3858779.1871,409,Active,Lyons Valley FS #32,MVU Lyons Valley FS,Station #32,FSB,SDU,SDU,San Diego,STATE,B,P,17759 Skyline Truck Trail,Jamul,91935,619-468-3435,32.72439248,-116.76484037
-13016210.7511,3862006.4163,410,Active,Monte Vista FS #20,MVU Monte Vista FS #20,San Diego Ranger Unit HQ / Station 20,FSB,SDU,SDU,San Diego,STATE,B,P,2245 Jamacha Rd,El Cajon,92019,619-590-3172,32.74877846,-116.92661059
-12948398.3836,3848621.2505,411,Temporarily Decommissioned,White Star FS #41,MVU White Star FS,Station #41,FSB,SDU,SDU,San Diego,STATE,B,P,"1684 Tierra Del Sol Rd, Rt 1,",Boulevard,91905,619-766-4533,32.64759233,-116.31744173
-13008499.7071,3876277.9771,412,Active,Flinn Springs FS #21,MVU Flinn Springs FS,Station #21,FSB,SDU,SDU,San Diego,STATE,B,P,9711 Flinn Springs Road,El Cajon,92021,619-443-7121,32.85653886,-116.8573411
-12978283.7335,3894398.8473,413,Active,Cuyamaca FS #51,MVU Cuyamaca FS #51,Station #51,FSB,SDU,SDU,San Diego,STATE,B,P,13650 Hwy 79,Julian,92036,760-765-0085,32.99317585,-116.58590639
-13019577.4711,3896414.2475,414,Active,Ramona FS #86,MVU Ramona FS #86,Ramona FFS,FSB,SDU,SDU,San Diego,STATE,B,P,16310 Hwy 67,Ramona,92065,760-789-1150,33.00835957,-116.95685435
-12995668.0785,3904457.6621,415,Active,Witch Creek FS #87,MVU Witch Creek FS,Station #87,FSB,SDU,SDU,San Diego,STATE,B,P,"27330 Hwy 78, Star Route Box 6",Ramona,92065,760-789-1448,33.06893132,-116.74207262
-12979043.7767,3905425.3812,416,Active,Julian FS #50,MVU Julian FS #50,Station 50,FSB,SDU,SDU,San Diego,STATE,C,P,"1587 Hwy 78, Borrego Star Rout",Julian,92036,760-7650511,33.07621601,-116.59273398
-13033873.691,3907279.7043,417,Active,Del Dios FS #77,MVU Del Dios FS,Station 77,FSB,SDU,SDU,San Diego,STATE,B,P,2323 Felicita Ave,Escondido,92029,760-735-9478,33.09017314,-117.08527948
-13025321.8803,3926696.5005,418,Active,Valley Center FS #71,MVU Valley Center FS,Station 71,FSB,SDU,SDU,San Diego,STATE,B,P,14946 Vesper Road,Valley Center,92082,760-749-1702,33.2361862,-117.00845726
-13039573.0178,3935106.8122,419,Active,Miller FS #15,MVU Miller FS #15,Station 15,FSB,SDU,SDU,San Diego,STATE,B,P,9127 W. Lilac Rd,Escondido,92028,760-728-8532,33.2993557,-117.1364774
-13020107.1815,3933648.1743,420,Active,Rincon FS #70,MVU Rincon FS,Station 70,FSB,SDU,SDU,San Diego,STATE,B,P,16971 Hwy 76,Pauma Valley,92061,760-742-3243,33.2884032,-116.96161282
-13044870.41,3947351.0757,421,Active,Red Mountain FS #10,MVU Red Mountain FS #10,Station 10,FSB,SDU,SDU,San Diego,STATE,B,P,3660 E Mission Rd,Fallbrook,92028,760-728-1323,33.39124009,-117.18406469
-13060077.2546,3952241.0687,422,Active,De Luz FS #16,MVU De Luz FS #16,Station 16,FSB,SDU,SDU,San Diego,STATE,B,P,39431 De Luz Rd,Fallbrook,92028,760-728-2422,33.42790887,-117.3206701
-13475558.4199,4712363.0713,423,Active,Auburn FS,CDF 10,Station 10,FSB,NEU,NEU,Placer,STATE,B,P,13760 Lincoln Way,Auburn,95603,530-889-0111,38.93498031,-121.05300091
-13448058.7633,4725077.8579,424,Active,Foresthill FS,CDF 11,Station 11,FSB,NEU,NEU,Placer,STATE,B,P,25150 Foresthill Road,Foresthill,95631,530-367-3111,39.02377086,-120.80596729
-13480076.9225,4727887.4892,425,Active,Higgins Corner FS,CDF 21,Station 21,FSB,NEU,NEU,Nevada,FIRE DISTRICT,B,P,10106 Combie Road,Auburn,95602,530-268-0844,39.04337623,-121.09359131
-13463912.7054,4734638.8487,426,Active,Colfax FS,CDF 30,Station 30,FSB,NEU,NEU,Placer,CITY,B,P,24020 Fowler Road,Colfax,95713,530-346-6776,39.09046433,-120.94838567
-13501862.2195,4750724.7032,427,Active,Smartville FS,CDF 40,Station 40,FSB,NEU,NEU,Yuba,STATE,B,P,8839 Hwy 20,Smartville,95977,530-639-2332,39.20253032,-121.28929196
-13472887.9739,4757355.5048,428,Active,Nevada City FS,CDF 20,Station 20,FSB,NEU,NEU,Nevada,STATE,B,P,10242 Ridge Road,Nevada City,95959,530-265-4589,39.24867342,-121.02901188
-13374563.9959,4767265.9807,429,Active,Truckee FS,CDF 50,Station 50,FSB,NEU,NEU,Nevada,STATE,B,P,10277 Truckee-Tahoe Airport Rd,Truckee,96161,530-582-9471,39.31758285,-120.14575256
-13515656.6843,4766679.5936,430,Active,Loma Rica FS,CDF 61,Station 61,FSB,NEU,NEU,Yuba,STATE,B,P,11485 Loma Rica Road,Marysville,95901,530-743-4477,39.31350757,-121.41320974
-13494223.7958,4776524.7242,431,Active,Dobbins FS,CDF 60,Station 60,FSB,NEU,NEU,Yuba,STATE,B,P,9946 Marysville Rd,Dobbins,95935,530-692-1616,39.38189955,-121.22067483
-13467284.6088,4776878.6198,432,Active,Columbia Hill FS,CDF 42,Station 42,FSB,NEU,NEU,Nevada,STATE,B,P,19076 Tyler-Foote Road,Nevada City,95959,530-265-2894,39.38435672,-120.978676
-13449068.4727,4750208.5654,433,Active,Alta FS,CDF 33,Station 33,FSB,NEU,NEU,Placer,STATE,B,P,33333 Alta Forestry Road,Alta,95701,530-389-2234,39.19893725,-120.81503766
-13367492.0092,4754294.4372,434,Active,Carnelian Bay FS,CDF 55,Station 55,FSB,NEU,NEU,Placer,FIRE DISTRICT,B,P,240 Carnelian Bay Ave,Carnelian Bay,96140,530-546-4685,39.22737544,-120.08222382
-13041111.0227,3961437.0612,435,Active,Temecula FS,RRU Temecula FS,,FSAB,RRU,RRU,Riverside,STATE,B,P,28330 Mercedes Street,Temecula,92591,951-676-2161,33.49682526,-117.15029354
-13017444.3201,3975848.924,436,Active,Sage FS,RRU Sage FS,,FSB,RRU,RRU,Riverside,STATE,B,P,35655 Sage Road,Hemet,92343,951-767-0118,33.60472,-116.93769193
-13049967.6183,4000244.1738,437,Active,Perris FS,RRU Perris FS,Riverside Ranger Unit,FSB,RRU,RRU,Riverside,STATE,B,P,210 W. San Jacinto St,Perris,92570,951-940-6970,33.78704821,-117.22985369
-13018784.4101,4019343.3513,438,Active,Beaumont FS,RRU Beaumont FS,,FSAB,RRU,RRU,Riverside,STATE,B,P,1550 E. 6Th Street,Beaumont,92223,951-845-2791,33.92952362,-116.94973016
-13074245.1036,4030408.7325,439,Active,West Riverside FS,RRU West Riverside FS,,FSAB,RRU,RRU,Riverside,STATE,B,P,7545 Mission Blvd,Riverside,92509,951-685-5260,34.01196,-117.44794205
-13565463.1474,4565233.8435,440,Active,Sunshine Fire Station 16,SCU Sunshine FS,Sunshine Fire Station,FSB,SCU,SCU,Contra Costa,STATE,B,P,11851 Marsh Creek Rd,Clayton,94517,925-672-6400,37.8994638,-121.86062881
-13526895.477,4540122.7432,441,Active,Castle Rock FS,SCU Castle Rock FS,Castle Rock Fire Station,FSB,SCU,SCU,San Joaquin,STATE,B,P,16502 Schulte Rd,Tracy,95376,209-835-8853,37.72124827,-121.51416954
-13487746.9063,4503999.3188,442,Active,Del Puerto Fire Station 15,SCU Del Puerto FS,Del Puerto Fire Station,FSB,SCU,SCU,Stanislaus,STATE,B,P,2142 Sperry Rd,Patterson,95363,209-892-5781,37.46412372,-121.16249194
-13524400.7354,4494612.3372,443,Active,Sweetwater Fire Station 25,SCU Sweetwater FS,Sweetwater Fire Station,FSB,SCU,SCU,Santa Clara,STATE,B,P,47625 Mines Road,Livermore,94550,408-897-3101,37.3971624,-121.49175889
-13544170.6854,4484177.2561,444,Active,Smith Creek Fire Station 12,SCU Smith Creek FS,Smith Creek Fire Station,FSB,SCU,SCU,Santa Clara,STATE,B,P,22805 Mt Hamilton Rd,San Jose,95140,408-274-0766,37.32265424,-121.66935537
-13589767.4756,4479242.0292,445,Active,Stevens Creek Fire Station 23,SCU Stevens Creek FS,Stevens Creek Fire Station,FSB,SCU,SCU,Santa Clara,STATE,B,P,13326 Stevens Canyon Rd,Cupertino,95014,408-867-3682,37.28739019,-122.07895831
-13580010.7919,4464691.8888,446,Active,Alma Fire Station 13,SCU Alma FS,Alma Fire Station,FSB,SCU,SCU,Santa Clara,STATE,B,P,19650 Santa Cruz Hwy,Los Gatos,95030,408-354-5050,37.18332768,-121.99131253
-13561179.0788,4466826.3211,447,Active,Almaden Fire Station 22,SCU Almaden FS,Almaden Fire Station,FSB,SCU,SCU,Santa Clara,STATE,B,P,20255 Mckean Road,San Jose,95120,408-268-1600,37.1986021,-121.82214437
-13540638.1505,4454472.9871,448,Active,Morgan Hill Fire Station 1 & 11,SCU Morgan Hill FS,Station 11 (Sched B) Station 1 (Sched A),FSAB,SCU,SCU,Santa Clara,STATE,C,P,15670 Monterey Road,Morgan Hill,95037,408-779-5136,37.1101563,-121.63762207
-13522918.0464,4449127.3488,449,Active,Coyote Fire Station 21,SCU Coyote FS,Coyote Fire Station,FSB,SCU,SCU,Santa Clara,STATE,B,P,8900 Gilroy Hot Springs Road,Gilroy,95020,408-842-4012,37.07185122,-121.47843967
-13508301.8412,4440966.6994,450,Active,Pacheco Fire Station 31,SCU Pacheco FS,Pacheco Fire Station,FSB,SCU,SCU,Santa Clara,STATE,B,P,12280 Pacheco Pass Highway,Hollister,95023,408-842-4221,37.01333738,-121.34714006
-13650988.0288,4933164.0305,451,Active,Ono FS,SHU Ono FS,Station #57,FSB,SHU,SHU,Shasta,STATE,B,P,11518 Platina ,Igo,96047,530-396-2202,40.46101259,-122.6289119
-13564511.2956,4938623.1902,452,Active,Shingletown FS,SHU Shingletown FS,Station #22,FSAB,SHU,SHU,Shasta,STATE,C,P,32249 Hwy 44,Shingletown,96088,530-474-3115,40.49831449,-121.85207818
-13713616.2578,4945876.0787,453,Active,Hayfork FS,SHU Hayfork FS,Station #62,FSB,SHU,SHU,Trinity,STATE,B,P,6231 State Highway 3,Hayfork,96041,530-628-4755,40.54944961,-123.19151085
-13632597.6435,4952147.5015,454,Active,Shasta FS,SHU Shasta FS,Station #58,FSAB,SHU,SHU,Shasta,STATE,C,P,16064 Homestake Rd,Redding,96033,530-225-2501,40.59063567,-122.46370825
-13569245.9174,4958074.031,455,Active,Whitmore FS,SHU Whitmore FS,Station #35,FSB,SHU,SHU,Shasta,STATE,B,P,11787 Ponderosa Way,Whitmore,96096,530-472-3227,40.63105184,-121.89461002
-13673532.0196,4964731.3259,456,Active,Fawn Lodge FS,SHU Fawn Lodge FS,Station #61,FSB,SHU,SHU,Trinity,STATE,B,P,60 Fawn Lodge Road,Fawn Lodge,96052,530-778-3720,40.67642247,-122.83142801
-13572425.8964,4968098.0852,457,Active,Buckhorn FS,SHU Buckhorn FS,Station #34,FSAB,SHU,SHU,Shasta,STATE,C,P,30377 Oak Run-To-Fern Rd,Whitmore,96096,530-472-3228,40.69935566,-121.92317625
-13591663.0017,4968800.3052,458,Active,Diddy Wells FS,SHU Diddy Wells FS,Station #74 ,FSB,SHU,SHU,Shasta,STATE,B,P,25830 Hwy 299E,Bella Vista,96008,530-472-3222,40.70413797,-122.09598611
-13681577.9868,4975822.7741,459,Active,Weaverville FS,SHU Weaverville FS,Station #60,FSB,SHU,SHU,Trinity,STATE,B,P,33400 Hwy 3 ,Weaverville,96093,530-623-4201,40.75194397,-122.90370616
-13568144.8177,4992788.4434,460,Active,Hillcrest FS,SHU Hillcrest FS,Station #75,FSB,SHU,SHU,Shasta,STATE,B,P,31385 Hwy 299E,Montgomery Creek,96065,530-337-6281,40.86729708,-121.88471867
-13540021.1954,4999550.7291,461,Active,Burney FS,SHU Burney FS,Station #14,FSB,SHU,SHU,Shasta,STATE,B,P,37966 Hwy 299E,Burney,96013,530-335-2203,40.91321937,-121.63207987
-13570401.5002,5014481.8116,462,Active,Big Bend FS,SHU Big Bend FS,Station #19,FSB,SHU,SHU,Shasta,STATE,B,P,25017 Big Bend ,Big Bend,96011,530-337-6921,41.01450266,-121.90499079
-13596097.853,5046800.1269,463,Active,McCloud FS,SKU McCloud FS,,FSB,SKU,SKU,Siskiyou,STATE,B,P,1509 Squaw Valley Rd,McCloud,96057,530-964-2150,41.23319765,-122.13582506
-13624467.454,5075271.7969,464,Active,Weed FS,SKU Weed FS,,FSB,SKU,SKU,Siskiyou,STATE,B,P,"300 Hwy 97, P.O. Box 704",Weed,96094,530-938-2322,41.42525862,-122.39067352
-13674507.1275,5102810.079,465,Active,Fort Jones FS,SKU Fort Jones FS,,FSB,SKU,SKU,Siskiyou,STATE,B,P,"12137 Main Street, P.O. Box 9",Fort Jones,96032,530-468-2696,41.6104844,-122.84018755
-13652319.5023,5116423.2131,466,Active,Yreka FS,SKU Yreka FS,,FSB,SKU,SKU,Siskiyou,STATE,B,P,"1809 Fairlane Rd, P.O. Box 128",Yreka,96097,530-842-4359,41.70185209,-122.64087273
-13581967.8274,5134496.7708,467,Active,Macdoel FS,SKU Macdoel FS,,FSB,SKU,SKU,Siskiyou,STATE,B,P,101 Meiss Lake Road,Macdoel,96058,530-398-4331,41.82295658,-122.00889288
-13644260.7622,5146550.3138,468,Active,Hornbrook FS,SKU Hornbrook FS,,FSB,SKU,SKU,Siskiyou,STATE,B,P,"14638 Bradley Henley Rd, P.O.",Hornbrook,96044,530-475-3582,41.90359611,-122.56847983
-13542481.5113,5035228.9909,469,Active,Pondosa FS,SKU Pondosa FS,,FSB,SKU,SHU,Shasta,STATE,B,P,"29599 Highway 89, P.O. Box 885",McCloud,96057,530-338-1303,41.15498059,-121.65418127
-13461120.4876,4253511.7322,470,Active,Las Tablas FS,SLU Las Tablas FS,#35,FSB,SLU,SLU,San Luis Obispo,STATE,B,P,275 Cypress Mt. Drive,Paso Robles,93446,805-238-4592,35.65688252,-120.92330275
-13455888.8127,4221266.3804,471,Temporarily Decommissioned,Cayucos FS,SLU Cayucos FS,#11,FSB,SLU,SLU,San Luis Obispo,STATE,B,P,Hwy. 1 @ Chaney,Cayucos,93430,805-995-1133,35.42117681,-120.87630582
-13379299.974,4215674.6189,472,Active,La Panza FS,SLU La Panza FS,#41,FSB,SLU,SLU,San Luis Obispo,STATE,B,P,"5398 Pozo Rd, Star Rt, Box 75A",Santa Margarita,93453,805-438-5460,35.38023192,-120.18829658
-13433865.9543,4204960.3684,473,Active,San Luis Obispo FS,SLU San Luis Obispo FS,#23,FSAB,SLU,SLU,San Luis Obispo,STATE,C,P,635 N. Santa Rosa,San Luis Obispo,93405,805-593-3484,35.30172037,-120.67847112
-13398942.8183,4612725.4333,474,Active,Arnold FS,TCU Arnold FS,,FSB,TCU,TCU,Calaveras,STATE,B,P,2517 Hwy 4,Arnold,95223,209-795-1542,38.23533782,-120.36475125
-13398778.4679,4534093.0478,475,Active,Blanchard FS,TCU Blanchard FS,,FSB,TCU,TCU,Tuolumne,STATE,B,P,2990 Hwy 132,La Grange,95329,209-852-2410,37.67839094,-120.36327486
-13429497.793,4576526.2815,476,Active,Copperopolis FS,TCU Copperopolis FS,,FSB,TCU,TCU,Calaveras,STATE,B,P,409 N. Main St.,Copperopolis,95228,209-785-2234,37.97946677,-120.63923125
-13415734.3497,4613833.3602,477,Active,Esperanza FS,TCU Esperanza FS,,FSB,TCU,TCU,Calaveras,STATE,B,P,9740 Mountain Ranch Rd,Mountain Ranch,95246,209-754-4402,38.24315499,-120.51559214
-13414286.2149,4556043.696,478,Active,Green Springs FS,TCU Green Springs FS,,FSB,TCU,TCU,Tuolumne,STATE,B,P,11600 La Grange Rd,Jamestown,95327,209-984-5574,37.83429039,-120.50258332
-13384857.6094,4556009.9781,479,Active,Groveland FS,TCU Groveland FS,,FSB,TCU,TCU,Tuolumne,STATE,B,P,11700 Merrell Rd,Groveland,95321,209-962-7821,37.83405115,-120.23822166
-13385212.8159,4639692.8411,480,Active,Hermit Springs FS,TCU Hermit Springs FS,,FSB,TCU,TCU,Calaveras,STATE,B,P,"Stanislausnf, Forrd 7N09@7N03",West Point,95255,209-419-4496,38.42537193,-120.24141254
-13408548.0938,4599790.3308,481,Active,Murphys FS,TCU Murphys FS,,FSB,TCU,TCU,Calaveras,STATE,B,P,33 Apple Blossom Dr,Murphys,95247,209-728-0398,38.14400991,-120.45103691
-13381546.934,4613471.0907,482,Active,Skull Creek FS,TCU Skull Creek FS,,FSB,TCU,TCU,Tuolumne,STATE,B,P,Forest Rd 5N20 At 5N38,Arnold,95223,209-795-1542,38.24059901,-120.20848136
-13384072.5885,4584916.255,483,Active,Twain Harte FS,TCU Twain Harte FS,,FSB,TCU,TCU,Tuolumne,STATE,B,P,22978 Meadow Dr.,Twain Harte,95383,209-586-3362,38.03885043,-120.2311697
-13447951.7747,4604018.2832,484,Active,Valley Springs FS,TCU Valley Springs FS,,FSB,TCU,TCU,Calaveras,STATE,B,P,1855 New Hogan Parkway ,Valley Springs,95252,209-772-1330,38.17387387,-120.80500619
-13416994.6502,4636664.3717,485,Active,West Point FS,TCU West Point FS,,FSB,TCU,TCU,Calaveras,STATE,B,P,22670 Hwy 26,West Point,95255,209-293-4222,38.40405576,-120.52691361
-13393767.5507,4573716.1864,486,Active,Standard FS,TCU Standard FS,,FSB,TCU,TCU,Tuolumne,STATE,B,P,18464 Striker Court,Sonora,95370,209-532-8182,37.95956633,-120.31826103
-13420350.9398,4591212.0181,487,Active,Altaville FS,TCU Altaville FS,,FSB,TCU,TCU,Calaveras,STATE,B,P,125 North Main St.,Altaville,95221,209-736-2037,38.08337986,-120.55706367
-13433022.0018,4606557.9995,488,Active,Headquarters FS,TCU San Andreas FS,Tuolumne-Calaveras HQ,FSB,TCU,TCU,Calaveras,STATE,B,P,785 Mountain Ranch Rd,San Andreas,95249,209-754-2735,38.19180714,-120.67088976
-13248614.7497,4390190.2919,489,Active,Badger FS,TUU Badger FS,,FSB,TUU,TUU,Tulare,STATE,B,P,50601 Hwy 245,Miramonte,93641,559-337-2524,36.64824609,-119.01433123
-13237271.4562,4359760.07,490,Active,Three Rivers FS,TUU Three Rivers FS,,FSB,TUU,TUU,Tulare,STATE,B,P,40900 Sierra  Drive ,Three Rivers ,93271,559-561-4432,36.42861374,-118.91243269
-13259399.7558,4361187.6988,491,Active,Woodlake FS,TUU Woodlake FS,,FSB,TUU,TUU,Tulare,STATE,B,P,35802 Olivera Drive,Woodlake,93286,559-564-2144,36.43893171,-119.11121459
-13275912.8038,4343876.9389,492,Active,Visalia FS,TUU Visalia FS,,FSB,TUU,TUU,Tulare,STATE,B,P,1968 South Lovers Lane,Visalia,93277,559-636-4126,36.31393158,-119.25960633
-13224975.9932,4327201.4656,493,Active,Bear Creek FS,TUU Bear Creek FS,,FSB,TUU,TUU,Tulare,STATE,B,P,39582 Balch Park Road ,Springville ,93265,559-539-2413,36.19292964,-118.80198067
-13244932.8502,4306717.0643,494,Active,Porterville FS,TUU Porterville FS,,FSB,TUU,TUU,Tulare,STATE,B,P,26488 Ave 140,Porterville,93257,559-784-2452,36.04428312,-118.98125616
-13237559.5303,4285558.7837,495,Active,Fountain Springs FS,TUU Fountain Springs FS,,FSB,TUU,TUU,Tulare,STATE,B,P,5560 Old Stage Road,Porterville,93257,559-534-2222,35.89045133,-118.9150205
-13217084.5836,4281796.4737,496,Active,Railroad Canyon FS,TUU Railraod Cayon FS,RRC,FSB,TUU,TUU,Tulare,STATE,B,P,38700 Hot Springs rd,California Hot Springs ,95207,559-619-9452,35.87367988,-118.70292515
-13197150.1389,4493629.6025,497,Active,Owens Valley CC,BDU Owens Valley CC,OVY,CC,BDU,BDU,Inyo,STATE,B,P,2781 South Round Valley Road,Bishop,93514,760-387-2565,37.39014846,-118.55201677
-13055800.0034,4065318.632,498,Active,Pilot Rock Fire Center,BDU Pilot Rock,,FCFFC,BDU,BDU,San Bernardino,STATE,B,P,23496 N Miller Canyon Rd,Silverwood Lake,92345,909-338-2812,34.2715119,-117.28224689
-13100870.4006,4027525.8511,499,Active,Prado CC,BDU Prado CC,,CC,BDU,BDU,San Bernardino,STATE,B,P,14467 Central Ave,Chino,91710,909-597-2911,33.99049044,-117.68712116
-13110678.855,4081265.2486,500,Active,Fenner Canyon CC,BDU Fenner Canyon CC,FCY,CC,BDU,LAC,Los Angeles,FEDERAL,B,P,P.O. Box 7 ,Valyermo,93563,661-944-5086,34.38980797,-117.77523201
-13094872.1737,4022033.7682,501,Active,Chino Institute for Women,BDU CIW CTC,,TC,BDU,BDU,San Bernardino,STATE,B,P,P.O. Box 2018,Chino,91708,909-597-1771,33.94957444,-117.63323817
-13512314.7697,4364605.5267,502,Active,Gabilan CC,BEU Gabilan CC,#38,CC,BEU,BEU,Monterey,STATE,B,P,31801 Mccoy Road,Soledad,93960,831-678-0609,36.46362809,-121.38318881
-13256544.0074,4393531.5014,503,Active,Miramonte CC,FKU Miramonte CC,,CC,FKU,FKU,Fresno,STATE,B,P,49039 Orchard Drive,Miramonte,93641,559-336-2313,36.67232349,-119.08556096
-13810359.6423,5086445.4728,504,Active,Alder CC,HUU Alder CC,,CC,HUU,HUU,Del Norte,STATE,B,P,1400 Alder Camp Road,Klamath,95548,707-482-2761,41.50047814,-124.06057146
-13783904.2569,4886064.3452,505,Active,Eel River CC,HUU Eel River CC,,CC,HUU,HUU,Humboldt,STATE,B,P,3850 Redwood Drive,Redway,95560,707-923-2757,40.13832443,-123.82291869
-13795979.6299,4920588.5508,506,Active,High Rock Fire Center,HUU High Rock Fire Center,,FCFFC,HUU,HUU,Humboldt,STATE,B,P,23322 Ave Of The Giants,Weott,95571,707-946-2362,40.37500671,-123.93139361
-13415268.3391,4924724.7783,507,Active,Antelope CC,LMU Antelope CC,,CC,LMU,LMU,Lassen,STATE,B,P,711-045 Center Rd,Susanville,96130,530-257-2295,40.40330697,-120.5114059
-13432787.8615,5089770.534,508,Active,Devils Garden Fire Center,LMU Devils Garden CC,,FCFFC,LMU,LMU,Modoc,STATE,B,P,335 Crowder Flat Road,Alturas,96101,530-233-3634,41.52284477,-120.66878644
-13494580.8857,5030529.2262,509,Active,Intermountain CC,LMU Intermountain CC,,CC,LMU,LMU,Lassen,STATE,B,P,22 Foothill Road,Bieber,96009,530-294-5289,41.12318503,-121.22388262
-13564063.1616,4610044.7275,510,Active,Delta CC,LNU Delta CC,,CC,LNU,LNU,Solano,STATE,B,P,6246 Lambie Rd,Suisun City,94585,707-428-4461,38.21642029,-121.84805253
-13659741.2723,4708868.0896,511,Active,Konocti CC,LNU Konocti CC,,CC,LNU,LNU,Lake,STATE,B,P,13044 State Highway 29,Lower Lake,95457,707-994-2441,38.91041059,-122.70754362
-13754262.8409,4772918.3658,512,Active,Chamberlain Creek Fire Center,MEU Chamberlain FC,,FCFFC,MEU,MEU,Mendocino,STATE,B,P,15800 Highway 20,Fort Bragg,95437,707-964-3716,39.35685491,-123.55664532
-13765098.7059,4774596.5768,513,Active,Parlin Fork CC,MEU Parlin Fork CC,,CC,MEU,MEU,Mendocino,STATE,B,P,23000 Highway 20,Fort Bragg,95437,707-964-3765,39.36851059,-123.65398555
-13363828.1287,4514153.3993,514,Active,Mount Bullion CC,MMU Mount Bullion CDC,MBL,CC,MMU,MMU,Mariposa,STATE,B,P,5730 Mt Bullion Acess Road,Mariposa,95338,209-966-2116,37.53648957,-120.04931062
-12989190.1314,3938374.9066,515,Active,Puerta La Cruz CC,MVU Puerta La Cruz CC,,CC,SDU,SDU,San Diego,STATE,B,P,32363 Highway 79,Warner Springs,92086,760-7823559,33.32388985,-116.68388023
-13037613.795,3952219.7033,516,Active,Rainbow Fire Center,MVU Rainbow Fire Center,,FCFFC,SDU,SDU,San Diego,STATE,B,P,8215 Rainbow Heights Road,Fallbrook,92028,760-728-7492,33.42774868,-117.1188774
-12973268.1216,3887315.3833,517,Active,La Cima CC,MVU La Cima CC,,CC,SDU,SDU,San Diego,STATE,B,P,15108 Sunrise Hwy,Julian,92036,760-765-0140,32.93978945,-116.54085039
-13462399.2926,4766009.7852,518,Active,Washington Ridge CC,CDF Washington Ridge CC,Washington Ridge CC,CC,NEU,NEU,Nevada,STATE,B,P,11425 Conservation Camp Rd,Nevada City,95959,530-265-7855,39.30885209,-120.93479045
-13003133.92,3980908.8507,519,Active,Bautista CC,RRU Bautista CC,,CC,RRU,RRU,Riverside,STATE,B,P,33015 Bautista Rd,Hemet,92544,951-927-3639,33.64256928,-116.80913942
-13088460.8479,4019001.7219,520,Active,Norco CC,RRU Norco CC,,CC,RRU,RRU,Riverside,FEDERAL,B,P,"5Th & Western, Bldg 314",Norco,91720,951-737-5911,33.92697727,-117.57564425
-13013933.9788,4033282.5049,521,Active,Oak Glen CC,RRU Oak Glen CC,,CC,RRU,RRU,Riverside,STATE,B,P,41100 Pine Bench Road,Yucaipa,92399,909-797-5418,34.0333563,-116.906158
-13591294.9439,4974898.1705,522,Active,Sugar Pine CC,SHU Sugar Pine CC,,CC,SHU,SHU,Shasta,STATE,B,P,15905 Sugar Pine Camp Road,Bella Vista,96008,530-472-3121,40.74565156,-122.09267979
-13670470.9106,4981373.8668,523,Active,Trinity River CC,SHU Trinity River CC,,CC,SHU,SHU,Trinity,STATE,B,P,"Forrt 34N76, 9Mi N Of Lewiston",Lewiston,96052,530-286-2880,40.78970909,-122.8039296
-13672781.019,5112817.1733,524,Active,Deadwood CC,SKU Deadwood CC,,CC,SKU,SKU,Siskiyou,STATE,B,P,17140 Mcadams Creek Road,Fort Jones,96032,530-468-2235,41.67766195,-122.82468166
-13417285.2088,4568774.4744,525,Active,Baseline Fire Center,BSL,Baseline Fire Center,FCFFC,TCU,TCU,Tuolumne,FEDERAL,B,P,16809 New Peoria Flat Rd.,Jamestown,95327,209-984-5287,37.92455723,-120.52952374
-13412806.0893,4594481.7245,526,Active,Vallecito CC,TCU Vallecito CC,Vallecito Camp,CC,TCU,TCU,Calaveras,STATE,B,P,3225 Six Mile Road,Angels Camp,95222,209-736-2553,38.10649552,-120.48928713
-13418453.9297,4564655.0947,527,Active,Sierra CC,TCU Sierra Training Center,Sierra Center,TC,TCU,TCU,Tuolumne,STATE,B,P,5100 O'Byrnes Ferry Rd,Jamestown,95327,209-984-4754,37.89536112,-120.54002254
-13215234.1898,4329304.6907,528,Active,Mountain Home CC,TUU Mountain Home CC,,CC,TUU,TUU,Tulare,STATE,B,P,45260 Bear Creek Rd,Springville,93265,559-5393151,36.2081759,-118.71446856
-13439956.8387,4208736.7335,529,Active,Cuesta CC,SLU Cuesta CC,Cuesta Camp,CC,SLU,SLU,San Luis Obispo,STATE,B,P,"Rt. 2, Box 427, Bld 962",San Luis Obispo,93401,805-543-9570,35.32940142,-120.73318646
-13259058.6421,4061433.6874,530,Active,Ventura Training Center,VNC Ventura Camp,Ventura Fire Fire and Training Center,FCCCC,SLU,VNC,Ventura,STATE,B,P,2800 Wright Rd,Camarillo ,93010,805-485-7951,34.24266724,-119.10815031
-13599737.0501,4457310.7436,531,Active,Ben Lomond CC,CZU Ben Lomond CC,Station 80,CC,CZU,CZU,Santa Cruz,STATE,B,P,13575 Empire Grade,Santa Cruz,95060,831-426-1610,37.12940511,-122.16851652
-13429818.1181,4254424.0125,532,Active,Los Robles YCC - CLOSED,SLU Los Robles YCC,,YCC,SLU,SLU,San Luis Obispo,STATE,B,P,4735 Airport Road,Paso Robles,93446,,35.66354096,-120.64210878
-13100882.4809,4027310.5769,533,Active,Prado HB,H305,,HB,BDU,BDU,San Bernardino,STATE,B,P,14467 Central Ave,Chino,91710,909-597-2911,33.98888702,-117.68722968
-13514287.6917,4423374.4655,534,Active,Hollister AAB,BEU Hollister AAB,#80,AAB,BEU,BEU,San Benito,STATE,B,P,2300 San Felipe Rd,Hollister,95024-0741,831-637-5456,36.88704348,-121.40091187
-13514382.5974,4423068.1307,535,Active,Hollister HB,BEU Hollister HB,,HB,BEU,BEU,San Benito,STATE,B,P,2300 San Felipe Road,Hollister,95024-0741,831-637-5456,36.887,-121.40176443
-13565156.4674,4837322.1051,536,Active,Chico AAB,BTU Chico AAB,,AAB,BTU,BTU,Butte,STATE,B,P,1335 Fortress Street,Chico,95926,530-895-6505,39.80276136,-121.85787386
-13325134.1501,4407235.5261,537,Active,Fresno AAB,FKU Fresno AAB,,AAB,FKU,FKU,Fresno,FEDERAL,F,P,2307 North Clovis Avenue,Fresno,93727,559-291-6435,36.77099854,-119.7017167
